{
"type": "FeatureCollection",
"name": "ContactDetails - 2023.xlsx",
"features": [
{ "type": "Feature", "properties": { "Name": "Meegahakiwula", "ID": "L13", "District": "Badulla", "DSD": "Meegahakiwula", "GND": "Komarika", "Latitude": 7.1272, "Longitude": 81.0768, "Address": "Sri Sumanarama Viharaya,\nKanugolla,\nKomarike,\nMeegahakiwula." }, "geometry": { "type": "Point", "coordinates": [ 81.0768, 7.1272 ] } },
{ "type": "Feature", "properties": { "Name": "Kendagolla", "ID": "L14", "District": "Badulla", "DSD": "Badulla", "GND": "Kendagolla", "Latitude": 6.9928, "Longitude": 81.1089, "Address": "Ba/Ampitiya Maha Vidyalaya,\nKendagolla,\nBadulla." }, "geometry": { "type": "Point", "coordinates": [ 81.1089, 6.9928 ] } },
{ "type": "Feature", "properties": { "Name": "Bogahakumbura", "ID": "L15", "District": "Badulla", "DSD": "Welimada", "GND": "Bibiligama", "Latitude": 6.8625, "Longitude": 80.8733, "Address": "Ba/Bogahakumbura Maha Vidyalaya,\nBogahakumbura." }, "geometry": { "type": "Point", "coordinates": [ 80.8733, 6.8625 ] } },
{ "type": "Feature", "properties": { "Name": "Medawela", "ID": "L16", "District": "Badulla", "DSD": "Uwa Paranagama", "GND": "Medawela", "Latitude": 6.933, "Longitude": 80.8656, "Address": "Ba/Karagahaulpatha Sri Gunananda Maha vidyalaya,\nMedawela,\nUdukinda." }, "geometry": { "type": "Point", "coordinates": [ 80.8656, 6.933 ] } },
{ "type": "Feature", "properties": { "Name": "Mirahawaththa", "ID": "L17", "District": "Badulla", "DSD": "Welimada", "GND": "Welikadagama", "Latitude": 6.8606, "Longitude": 80.9468, "Address": "Ba/Malpotha Sri Mahinda Vidyalaya,\nMalpotha,\nMirahawaththa." }, "geometry": { "type": "Point", "coordinates": [ 80.9468, 6.8606 ] } },
{ "type": "Feature", "properties": { "Name": "Sapugolla", "ID": "L18", "District": "Badulla", "DSD": "Uva Paranagama", "GND": "Sapugolla", "Latitude": 6.9531, "Longitude": 80.9009, "Address": "Sapugolla Tample,\nUva Paranagama." }, "geometry": { "type": "Point", "coordinates": [ 80.9009, 6.9531 ] } },
{ "type": "Feature", "properties": { "Name": "Malwaththa", "ID": "L19", "District": "Badulla", "DSD": "Bandarawela", "GND": "Aislaby", "Latitude": 6.8642, "Longitude": 80.9861, "Address": "Aislaby Estate,\nBandarawela." }, "geometry": { "type": "Point", "coordinates": [ 80.9861, 6.8642 ] } },
{ "type": "Feature", "properties": { "Name": "Karandagolla", "ID": "L20", "District": "Badulla", "DSD": "Ella", "GND": "Karandagolla", "Latitude": 6.8112, "Longitude": 81.0893, "Address": "Residential Camp,\nUmaoya Multipurpose Development Project,\nKarandagolla." }, "geometry": { "type": "Point", "coordinates": [ 81.0893, 6.8112 ] } },
{ "type": "Feature", "properties": { "Name": "Ranwanguhawa", "ID": "L21", "District": "Badulla", "DSD": "Haldummulla", "GND": "Ranwanguhawa", "Latitude": 6.734, "Longitude": 80.918, "Address": "Ba/Ranwanguhawa Vidyalaya,\nRanwanguhawa,\nKirawanagama,\nHaputhale." }, "geometry": { "type": "Point", "coordinates": [ 80.918, 6.734 ] } },
{ "type": "Feature", "properties": { "Name": "Mahalanda", "ID": "L67", "District": "Badulla", "DSD": "Haldummulla", "GND": "Mahalanda", "Latitude": 6.6327, "Longitude": 81.0463, "Address": "Suwa Udana Health Services Center, Mahalanda," }, "geometry": { "type": "Point", "coordinates": [ 81.0463, 6.6327 ] } },
{ "type": "Feature", "properties": { "Name": "Uduwara", "ID": "L68", "District": "Badulla", "DSD": "Hali Ela", "GND": "Hapuwala Kumbura", "Latitude": 6.9272, "Longitude": 81.041, "Address": "Uduwara Maha Vidyalaya, 6th Mile Post, Uduwara." }, "geometry": { "type": "Point", "coordinates": [ 81.041, 6.9272 ] } },
{ "type": "Feature", "properties": { "Name": "Downside Estate", "ID": "M16", "District": "Badulla", "DSD": "Uwa Paranagama", "GND": "Down Side", "Latitude": 6.9312, "Longitude": 80.9219, "Address": "Downside Estate,\nWelimada." }, "geometry": { "type": "Point", "coordinates": [ 80.9219, 6.9312 ] } },
{ "type": "Feature", "properties": { "Name": "Viyaluwa", "ID": "M17", "District": "Badulla", "DSD": "Kandaketiya", "GND": "Bogahakumbura", "Latitude": 7.0795, "Longitude": 81.0101, "Address": "Viyaluwa Maha Vidyalaya,\nTennapanguwa,\nKandegedara." }, "geometry": { "type": "Point", "coordinates": [ 81.0101, 7.0795 ] } },
{ "type": "Feature", "properties": { "Name": "Bandarawela", "ID": "R01", "District": "Badulla", "DSD": "Bandarawela", "GND": "Udaperuwa", "Latitude": 6.8311, "Longitude": 81.0043, "Address": "Bandarawela Central College, Bandarawela" }, "geometry": { "type": "Point", "coordinates": [ 81.0043, 6.8311 ] } },
{ "type": "Feature", "properties": { "Name": "Bogahamaditta", "ID": "R02", "District": "Badulla", "DSD": "Hali Ela", "GND": "Bogahamaditta", "Latitude": 6.9699, "Longitude": 81.0383, "Address": "Sri Jethawana Buddhist Central, Bogahamadiththa" }, "geometry": { "type": "Point", "coordinates": [ 81.0383, 6.9699 ] } },
{ "type": "Feature", "properties": { "Name": "Haldamulla", "ID": "R03", "District": "Badulla", "DSD": "Haldummulla", "GND": "Walhaputhenna", "Latitude": 6.7641, "Longitude": 80.8691, "Address": "Walahaputhenna Central (National School), Haldummulla" }, "geometry": { "type": "Point", "coordinates": [ 80.8691, 6.7641 ] } },
{ "type": "Feature", "properties": { "Name": "Hali Ela", "ID": "R04", "District": "Badulla", "DSD": "Hali Ela", "GND": "Jangulla", "Latitude": 6.9941, "Longitude": 81.0122, "Address": "Sub office of Haliela Pradesiya saba, Katawala, Landewela" }, "geometry": { "type": "Point", "coordinates": [ 81.0122, 6.9941 ] } },
{ "type": "Feature", "properties": { "Name": "Palgahatanna", "ID": "R05", "District": "Badulla", "DSD": "Passara", "GND": "Udagama", "Latitude": 6.9567, "Longitude": 81.1288, "Address": "Udagama Maha Vidyalaya, West, Palgahathanna" }, "geometry": { "type": "Point", "coordinates": [ 81.1288, 6.9567 ] } },
{ "type": "Feature", "properties": { "Name": "Spring Vally", "ID": "R06", "District": "Badulla", "DSD": "Hali Ela", "GND": "Imbulgoda", "Latitude": 6.9654, "Longitude": 81.0739, "Address": "Sri Dumindaramaya, Spring vally, Badulla" }, "geometry": { "type": "Point", "coordinates": [ 81.0739, 6.9654 ] } },
{ "type": "Feature", "properties": { "Name": "Uva Wellassa", "ID": "R07", "District": "Badulla", "DSD": "Badulla", "GND": "Glen Alpin Estate", "Latitude": 6.982, "Longitude": 81.0757, "Address": "University of Uva Wellassa, Badulla" }, "geometry": { "type": "Point", "coordinates": [ 81.0757, 6.982 ] } },
{ "type": "Feature", "properties": { "Name": "Wewegama", "ID": "R08", "District": "Badulla", "DSD": "Uva Paranagama", "GND": "Dimbulana", "Latitude": 7.0094, "Longitude": 80.9536, "Address": "Wawegama District Hospital, Dimbulana" }, "geometry": { "type": "Point", "coordinates": [ 80.9536, 7.0094 ] } },
{ "type": "Feature", "properties": { "Name": "Haputhale", "ID": "T03", "District": "Badulla", "DSD": "Haputhale", "GND": "Part of Haputhale Town", "Latitude": 6.76819, "Longitude": 80.96255, "Address": "Ba/Haputale Tamil Central College, 140/51, Police Kanda Road" }, "geometry": { "type": "Point", "coordinates": [ 80.96255, 6.76819 ] } },
{ "type": "Feature", "properties": { "Name": "Keppetipola", "ID": "T22", "District": "Badulla", "DSD": "Welimada", "GND": "Palugama Town", "Latitude": 6.8955, "Longitude": 80.8712, "Address": "Keppetipola Maha Vidyalaya Keppetipola" }, "geometry": { "type": "Point", "coordinates": [ 80.8712, 6.8955 ] } },
{ "type": "Feature", "properties": { "Name": "Etampitiya", "ID": "T23", "District": "Badulla", "DSD": "Hali Ela", "GND": "Etampitiya", "Latitude": 6.9374, "Longitude": 80.9896, "Address": "Ba/Etampitiya National School, Etampitiya" }, "geometry": { "type": "Point", "coordinates": [ 80.9896, 6.9374 ] } },
{ "type": "Feature", "properties": { "Name": "Soranatota", "ID": "T24", "District": "Badulla", "DSD": "Soranathota", "GND": "Kohovila", "Latitude": 7.0204, "Longitude": 81.0454, "Address": "Ba/Soranatora Central Collage, Soranatota, Badulla" }, "geometry": { "type": "Point", "coordinates": [ 81.0454, 7.0204 ] } },
{ "type": "Feature", "properties": { "Name": "Passara", "ID": "T25", "District": "Badulla", "DSD": "Passara", "GND": "Passara Town East", "Latitude": 6.938, "Longitude": 81.158, "Address": "Passara Central College, Passara" }, "geometry": { "type": "Point", "coordinates": [ 81.158, 6.938 ] } },
{ "type": "Feature", "properties": { "Name": "Lunugala", "ID": "T26", "District": "Badulla", "DSD": "Lunugala", "GND": "Attanagolla", "Latitude": 7.0418, "Longitude": 81.2054, "Address": "Ba/lunugala central college, Lunugala" }, "geometry": { "type": "Point", "coordinates": [ 81.2054, 7.0418 ] } },
{ "type": "Feature", "properties": { "Name": "Ella", "ID": "T27", "District": "Badulla", "DSD": "Ella", "GND": "Ella", "Latitude": 6.8724, "Longitude": 81.05039, "Address": "Ella Model School, Ella" }, "geometry": { "type": "Point", "coordinates": [ 81.05039, 6.8724 ] } },
{ "type": "Feature", "properties": { "Name": "Kanawarella", "ID": "T28", "District": "Badulla", "DSD": "Passara", "GND": "Kanawerella East", "Latitude": 6.8941, "Longitude": 81.1196, "Address": "Kanawarella No.03 Tamil Vidyalaya" }, "geometry": { "type": "Point", "coordinates": [ 81.1196, 6.8941 ] } },
{ "type": "Feature", "properties": { "Name": "Diyathalawa", "ID": "T29", "District": "Badulla", "DSD": "Haputhale", "GND": "Diyathalawa", "Latitude": 6.8074, "Longitude": 80.9596, "Address": "Ba/Diyathalawa Maha Vidyalaya, Diyathalawa" }, "geometry": { "type": "Point", "coordinates": [ 80.9596, 6.8074 ] } },
{ "type": "Feature", "properties": { "Name": "Koslanda", "ID": "T30", "District": "Badulla", "DSD": "Haldummulla", "GND": "Kotabakma", "Latitude": 6.7451, "Longitude": 81.0105, "Address": "Ba/Koslanda Tamil Central College Koslanda" }, "geometry": { "type": "Point", "coordinates": [ 81.0105, 6.7451 ] } },
{ "type": "Feature", "properties": { "Name": "Nikapotha", "ID": "T40", "District": "Badulla", "DSD": "Haldumulla", "GND": "Nikapotha East - 155", "Latitude": 6.7453, "Longitude": 80.9737, "Address": "Agrarian Services Center, Nikapotha." }, "geometry": { "type": "Point", "coordinates": [ 80.9737, 6.7453 ] } },
{ "type": "Feature", "properties": { "Name": "Dambethenna", "ID": "T41", "District": "Badulla", "DSD": "Haputhale", "GND": "Pitarathmale", "Latitude": 6.7845, "Longitude": 80.9965, "Address": "Pitarathmale Estate, Haputhale." }, "geometry": { "type": "Point", "coordinates": [ 80.9965, 6.7845 ] } },
{ "type": "Feature", "properties": { "Name": "Poonagala", "ID": "T42", "District": "Badulla", "DSD": "Haldumulla", "GND": "Poonagala", "Latitude": 6.7811, "Longitude": 81.0462, "Address": "Poonagala Group Estate, Bandarawela." }, "geometry": { "type": "Point", "coordinates": [ 81.0462, 6.7811 ] } },
{ "type": "Feature", "properties": { "Name": "Liyangahawela", "ID": "T43", "District": "Badulla", "DSD": "Bandarawela", "GND": "Liyangahawela Waththa", "Latitude": 6.8006, "Longitude": 81.0363, "Address": "Grama Niladhari Office, Liyangahawela. Wattha." }, "geometry": { "type": "Point", "coordinates": [ 81.0363, 6.8006 ] } },
{ "type": "Feature", "properties": { "Name": "Boralanda", "ID": "T44", "District": "Badulla", "DSD": "Welimada", "GND": "Boralanda", "Latitude": 6.8299, "Longitude": 80.8955, "Address": "Boralanda Dharmapala Vidyalaya, Boralanda." }, "geometry": { "type": "Point", "coordinates": [ 80.8955, 6.8299 ] } },
{ "type": "Feature", "properties": { "Name": "Welimada", "ID": "T45", "District": "Badulla", "DSD": "Welimada", "GND": "Welimada", "Latitude": 6.9077, "Longitude": 80.9181, "Address": "Welimada Central Collage, Welimada." }, "geometry": { "type": "Point", "coordinates": [ 80.9181, 6.9077 ] } },
{ "type": "Feature", "properties": { "Name": "Rahupola", "ID": "T46", "District": "Badulla", "DSD": "Uwa-Paranagama", "GND": "Rahupola", "Latitude": 6.9665, "Longitude": 80.9452, "Address": "Rahupola Primary School, Lunuwaththa." }, "geometry": { "type": "Point", "coordinates": [ 80.9452, 6.9665 ] } },
{ "type": "Feature", "properties": { "Name": "Galauda", "ID": "T47", "District": "Badulla", "DSD": "Kandeketiya", "GND": "Bokunoruwa", "Latitude": 7.0401, "Longitude": 80.9889, "Address": "Galauda Central Collage, Galauda, Haliela." }, "geometry": { "type": "Point", "coordinates": [ 80.9889, 7.0401 ] } },
{ "type": "Feature", "properties": { "Name": "Kandeketiya", "ID": "T48", "District": "Badulla", "DSD": "Kandeketiya", "GND": "Kandeketiya", "Latitude": 7.1726, "Longitude": 81.0056, "Address": "Agrarian Services Center, Bathmedilla, Kandeketiya." }, "geometry": { "type": "Point", "coordinates": [ 81.0056, 7.1726 ] } },
{ "type": "Feature", "properties": { "Name": "Madolsima", "ID": "T49", "District": "Badulla", "DSD": "Lunugala", "GND": "Galloola", "Latitude": 7.0499, "Longitude": 81.1501, "Address": "Galloola Estate, Madolsima." }, "geometry": { "type": "Point", "coordinates": [ 81.1501, 7.0499 ] } },
{ "type": "Feature", "properties": { "Name": "Ballaketuwa", "ID": "T50", "District": "Badulla", "DSD": "Ella", "GND": "Ballaketuwa", "Latitude": 6.8597, "Longitude": 81.0939, "Address": "Sri Sugatha Secondary School, Ballaketuwa." }, "geometry": { "type": "Point", "coordinates": [ 81.0939, 6.8597 ] } },
{ "type": "Feature", "properties": { "Name": "Rideemaliyadda", "ID": "T51", "District": "Badulla", "DSD": "Rideemaliyadda", "GND": "Rideemaliyadda South", "Latitude": 7.2183, "Longitude": 81.1207, "Address": "Divisional Secretariate, Ridimaliyadda." }, "geometry": { "type": "Point", "coordinates": [ 81.1207, 7.2183 ] } },
{ "type": "Feature", "properties": { "Name": "Idalgashinna", "ID": "T52", "District": "Badulla", "DSD": "Welimada", "GND": "Maligathenna", "Latitude": 6.7826, "Longitude": 80.8942, "Address": "Idalgashinna Bio Tea Factory, Idalgashinna." }, "geometry": { "type": "Point", "coordinates": [ 80.8942, 6.7826 ] } },
{ "type": "Feature", "properties": { "Name": "Beddagama Springvale", "ID": "SR001", "District": "Badulla", "DSD": "HaliEla", "GND": null, "Latitude": 6.9247, "Longitude": 81.0871, "Address": "Beddagama Purana Viharaya, Springvale" }, "geometry": { "type": "Point", "coordinates": [ 81.0871, 6.9247 ] } },
{ "type": "Feature", "properties": { "Name": "Garandiella, Passara", "ID": "SR002", "District": "Badulla", "DSD": "Passara", "GND": null, "Latitude": 6.9946, "Longitude": 81.1609, "Address": "Sri Sambodhi Viharaya, Garandiella, Medawelagama, Passara" }, "geometry": { "type": "Point", "coordinates": [ 81.1609, 6.9946 ] } },
{ "type": "Feature", "properties": { "Name": "Boragass, Silmiyapura", "ID": "SR003", "District": "Badulla", "DSD": "Welimada", "GND": "Silmiyapura", "Latitude": 6.9161, "Longitude": 80.836, "Address": "Silmiyapura Main Jumma Mosque, New Bazaar, Silmiyapura" }, "geometry": { "type": "Point", "coordinates": [ 80.836, 6.9161 ] } },
{ "type": "Feature", "properties": { "Name": "Labugama", "ID": "L01", "District": "Colombo", "DSD": "Padukka", "GND": "Thummodara", "Latitude": 6.8471, "Longitude": 80.1786, "Address": "Labugama Treatment Plant,\nN W S & D B,\nLabugama,\nThummodara." }, "geometry": { "type": "Point", "coordinates": [ 80.1786, 6.8471 ] } },
{ "type": "Feature", "properties": { "Name": "Kotahera", "ID": "L02", "District": "Colombo", "DSD": "Seethawaka", "GND": "Aradhana Kanda", "Latitude": 6.9426, "Longitude": 80.22, "Address": "Grama Niladhari Office, 432 F, Aradhana Kanda, Galapita Madama, Avissawella." }, "geometry": { "type": "Point", "coordinates": [ 80.22, 6.9426 ] } },
{ "type": "Feature", "properties": { "Name": "Meetotamulla", "ID": "T31", "District": "Colombo", "DSD": "Kolonnawa", "GND": "Meetotamulla", "Latitude": 6.9359, "Longitude": 79.8891, "Address": "Meetotamulla\nSLTB Deopt, Meetotamulla." }, "geometry": { "type": "Point", "coordinates": [ 79.8891, 6.9359 ] } },
{ "type": "Feature", "properties": { "Name": "Colombo - 5", "ID": "T81", "District": "Colombo", "DSD": "Thimbirigasyaya", "GND": "Thimbirigasyaya", "Latitude": 6.8942, "Longitude": 79.8685, "Address": "NBRO, Jawatte Road, Colombo - 5" }, "geometry": { "type": "Point", "coordinates": [ 79.8685, 6.8942 ] } },
{ "type": "Feature", "properties": { "Name": "Puwakpitiya Sobasiripura", "ID": "SR026", "District": "Colombo", "DSD": "Seethawaka", "GND": null, "Latitude": 6.9444, "Longitude": 80.189759, "Address": "Sobasiripura, Puwakpitiya" }, "geometry": { "type": "Point", "coordinates": [ 80.189759, 6.9444 ] } },
{ "type": "Feature", "properties": { "Name": "Wathurawila", "ID": "L10", "District": "Galle", "DSD": "Elpitiya", "GND": "Wathurawila", "Latitude": 6.2284, "Longitude": 80.2296, "Address": "Ga/El/ Wathurawila Primary School,\nWathurawila,\nKahaduwa." }, "geometry": { "type": "Point", "coordinates": [ 80.2296, 6.2284 ] } },
{ "type": "Feature", "properties": { "Name": "Bangamukanda", "ID": "L11", "District": "Galle", "DSD": "Niyagama", "GND": "Bangamukanda", "Latitude": 6.3344, "Longitude": 80.2656, "Address": "Ga/ Bangamukanda Primary School,\nBangamukanda,\nGodamuna,\nPitigala." }, "geometry": { "type": "Point", "coordinates": [ 80.2656, 6.3344 ] } },
{ "type": "Feature", "properties": { "Name": "Lankagama", "ID": "L12", "District": "Galle", "DSD": "Neluwa", "GND": "Lankagama", "Latitude": 6.3714, "Longitude": 80.455, "Address": "GA/ Lankagama Model Primary School,\nLankagama,\nDeniyaya." }, "geometry": { "type": "Point", "coordinates": [ 80.455, 6.3714 ] } },
{ "type": "Feature", "properties": { "Name": "Udugama", "ID": "L69", "District": "Galle", "DSD": "Nagoda", "GND": "Homadola", "Latitude": 6.2188, "Longitude": 80.3628, "Address": "Homadola Estate, Udugama." }, "geometry": { "type": "Point", "coordinates": [ 80.3628, 6.2188 ] } },
{ "type": "Feature", "properties": { "Name": "Wanduramba", "ID": "M18", "District": "Galle", "DSD": "Baddegama", "GND": "Wanduraba", "Latitude": 6.1346, "Longitude": 80.2519, "Address": "Wanduraba Central Collage,\nWanduraba" }, "geometry": { "type": "Point", "coordinates": [ 80.2519, 6.1346 ] } },
{ "type": "Feature", "properties": { "Name": "Yakkalamulla", "ID": "R46", "District": "Galle", "DSD": "Yakkalamulla", "GND": "Polpagoda", "Latitude": 6.0926, "Longitude": 80.3582, "Address": "Polpagoda Dharmapala Maha Vidyalaya, Yakkalamulla." }, "geometry": { "type": "Point", "coordinates": [ 80.3582, 6.0926 ] } },
{ "type": "Feature", "properties": { "Name": "Baddegama", "ID": "R47", "District": "Galle", "DSD": "Baddegama", "GND": "Baddegama Town", "Latitude": 6.1687, "Longitude": 80.1799, "Address": "Divisional Secretariat, Baddegama" }, "geometry": { "type": "Point", "coordinates": [ 80.1799, 6.1687 ] } },
{ "type": "Feature", "properties": { "Name": "Nagoda", "ID": "R48", "District": "Galle", "DSD": "Nagoda", "GND": "Kappetiyagoda South", "Latitude": 6.1933, "Longitude": 80.2772, "Address": "Nagoda Royal Collage, Nagoda." }, "geometry": { "type": "Point", "coordinates": [ 80.2772, 6.1933 ] } },
{ "type": "Feature", "properties": { "Name": "Elpitiya", "ID": "R49", "District": "Galle", "DSD": "Elpitiya", "GND": "Ketandola Udovita", "Latitude": 6.2997, "Longitude": 80.1904, "Address": "Ketandola Estate, Ketandola, Elpitiya." }, "geometry": { "type": "Point", "coordinates": [ 80.1904, 6.2997 ] } },
{ "type": "Feature", "properties": { "Name": "Neluwa", "ID": "R50", "District": "Galle", "DSD": "Neluwa", "GND": "Neluwa", "Latitude": 6.3791, "Longitude": 80.3599, "Address": "Divisional Secretariat, Neluwa" }, "geometry": { "type": "Point", "coordinates": [ 80.3599, 6.3791 ] } },
{ "type": "Feature", "properties": { "Name": "Hiniduma", "ID": "T34", "District": "Galle", "DSD": "Thawalama", "GND": "Hiniduma North", "Latitude": 6.3296, "Longitude": 80.3225, "Address": "Police Station, Hiniduma" }, "geometry": { "type": "Point", "coordinates": [ 80.3225, 6.3296 ] } },
{ "type": "Feature", "properties": { "Name": "Imaduwa", "ID": "T35", "District": "Galle", "DSD": "Imaduwa", "GND": "Paragoda", "Latitude": 6.0363, "Longitude": 80.3821, "Address": "Batemulla National School, Imaduwa." }, "geometry": { "type": "Point", "coordinates": [ 80.3821, 6.0363 ] } },
{ "type": "Feature", "properties": { "Name": "Ella, Elpitiya", "ID": "SR022", "District": "Galle", "DSD": "Elpitiya", "GND": "Ella", "Latitude": 6.260413, "Longitude": 80.159663, "Address": "Rajabhisekaramaya, Ella, Elpitiya" }, "geometry": { "type": "Point", "coordinates": [ 80.159663, 6.260413 ] } },
{ "type": "Feature", "properties": { "Name": "Alawala", "ID": "L70", "District": "Gampaha", "DSD": "Attanagalla", "GND": "Alawala North", "Latitude": 7.1276, "Longitude": 80.1912, "Address": "Alawala Pothgul Len Rajamaha Viharaya, Alawala, Veyangoda." }, "geometry": { "type": "Point", "coordinates": [ 80.1912, 7.1276 ] } },
{ "type": "Feature", "properties": { "Name": "Gangulandeniya", "ID": "L08", "District": "Hambantota", "DSD": "Katuwana", "GND": "Gangulandeniya", "Latitude": 6.2933, "Longitude": 80.7166, "Address": "Ha/ Ratanajothi Primary School,\nGangulandeniya." }, "geometry": { "type": "Point", "coordinates": [ 80.7166, 6.2933 ] } },
{ "type": "Feature", "properties": { "Name": "Madakanda", "ID": "R56", "District": "Hambantota", "DSD": "Katuwana", "GND": "Medakanda", "Latitude": 6.2949, "Longitude": 80.6729, "Address": "Sri Indurugiri Viharaya, Medakanda, Katuwana." }, "geometry": { "type": "Point", "coordinates": [ 80.6729, 6.2949 ] } },
{ "type": "Feature", "properties": { "Name": "Walasmulla", "ID": "R57", "District": "Hambantota", "DSD": "Okewela", "GND": "Udadeniya", "Latitude": 6.1517, "Longitude": 80.6729, "Address": "Sri Chandimaramaya, Pallekanda, Walasmulla" }, "geometry": { "type": "Point", "coordinates": [ 80.6729, 6.1517 ] } },
{ "type": "Feature", "properties": { "Name": "Warapitiya", "ID": "R58", "District": "Hambantota", "DSD": "Walasmulla", "GND": "Warapitiya", "Latitude": 6.2187, "Longitude": 80.63608, "Address": "Warapitiya Maha Vidyalaya, Rammala, Warapitiya" }, "geometry": { "type": "Point", "coordinates": [ 80.63608, 6.2187 ] } },
{ "type": "Feature", "properties": { "Name": "Horana", "ID": "L03", "District": "Kalutara", "DSD": "Horana", "GND": "Horana", "Latitude": 6.7117, "Longitude": 80.0625, "Address": "Taxil Central Collage,\nHorana.\nhoranataxilacc@gmail.com" }, "geometry": { "type": "Point", "coordinates": [ 80.0625, 6.7117 ] } },
{ "type": "Feature", "properties": { "Name": "Delmella", "ID": "L04", "District": "Kalutara", "DSD": "Bulathsinhala", "GND": "Delmella", "Latitude": 6.6816, "Longitude": 80.21, "Address": "Delmella Primary School,\nDelmella,\nBulathsinhala." }, "geometry": { "type": "Point", "coordinates": [ 80.21, 6.6816 ] } },
{ "type": "Feature", "properties": { "Name": "Matugama", "ID": "L05", "District": "Kalutara", "DSD": "Mathugama", "GND": "Mathugama South", "Latitude": 6.5158, "Longitude": 80.1197, "Address": "C.W.W. Kannangara Central Collage,\nMathugama." }, "geometry": { "type": "Point", "coordinates": [ 80.1197, 6.5158 ] } },
{ "type": "Feature", "properties": { "Name": "Halwala", "ID": "L07", "District": "Kalutara", "DSD": "Walallawita", "GND": "Halwala", "Latitude": 6.406462, "Longitude": 80.103443, "Address": "Galthara Tea Factory, Galthara, Ittepana" }, "geometry": { "type": "Point", "coordinates": [ 80.103443, 6.406462 ] } },
{ "type": "Feature", "properties": { "Name": "Pahiyangala", "ID": "L71", "District": "Kalutara", "DSD": "Bulathsinhala", "GND": "Niggaha", "Latitude": 6.6468, "Longitude": 80.2162, "Address": "Pahiyangala Temple,\nYatagampitiya,\nBulathsinhala" }, "geometry": { "type": "Point", "coordinates": [ 80.2162, 6.6468 ] } },
{ "type": "Feature", "properties": { "Name": "Ingiriya", "ID": "R41", "District": "Kalutara", "DSD": "Ingiriya", "GND": "Nimalagama", "Latitude": 6.7452, "Longitude": 80.1682, "Address": "Divisional Secretariat, Ingiriya" }, "geometry": { "type": "Point", "coordinates": [ 80.1682, 6.7452 ] } },
{ "type": "Feature", "properties": { "Name": "Bulathsinhala", "ID": "R42", "District": "Kalutara", "DSD": "Bulathsinhala", "GND": "Bulathsinhala", "Latitude": 6.6504, "Longitude": 80.1772, "Address": "Bulathsinhala Police Station, Bulathsinhala." }, "geometry": { "type": "Point", "coordinates": [ 80.1772, 6.6504 ] } },
{ "type": "Feature", "properties": { "Name": "Baduraliya", "ID": "R43", "District": "Kalutara", "DSD": "Palindanuwara", "GND": "Baduraliya", "Latitude": 6.5156, "Longitude": 80.2324, "Address": "Palindanuwara Divisional Secretariat, Baduraliya" }, "geometry": { "type": "Point", "coordinates": [ 80.2324, 6.5156 ] } },
{ "type": "Feature", "properties": { "Name": "Agalawaththa", "ID": "R44", "District": "Kalutara", "DSD": "Agalawatta", "GND": "Kithulgoda South", "Latitude": 6.4949, "Longitude": 80.1849, "Address": "Ganegodella Purana Viharaya, Kithulgoda, Agalawatta." }, "geometry": { "type": "Point", "coordinates": [ 80.1849, 6.4949 ] } },
{ "type": "Feature", "properties": { "Name": "Walallavita MV", "ID": "R45", "District": "Kalutara", "DSD": "Walallawita", "GND": "Walallawita South", "Latitude": 6.3726, "Longitude": 80.1947, "Address": "Walallawita Maha Vidyalaya, Walallawita." }, "geometry": { "type": "Point", "coordinates": [ 80.1947, 6.3726 ] } },
{ "type": "Feature", "properties": { "Name": "Neboda", "ID": "T32", "District": "Kalutara", "DSD": "Dodangoda", "GND": "Neboda 807", "Latitude": 6.5919, "Longitude": 80.0911, "Address": "Neboda Maha Vidyalaya, Neboda." }, "geometry": { "type": "Point", "coordinates": [ 80.0911, 6.5919 ] } },
{ "type": "Feature", "properties": { "Name": "Hendigalla", "ID": "T33", "District": "Kalutara", "DSD": "Baduraliya", "GND": "Ingurudaluwa 839C", "Latitude": 6.4643, "Longitude": 80.2885, "Address": "Hendigalla Maha Vidyalaya, Hendigalla." }, "geometry": { "type": "Point", "coordinates": [ 80.2885, 6.4643 ] } },
{ "type": "Feature", "properties": { "Name": "Mahagama, Helkade", "ID": "SR020", "District": "Kalutara", "DSD": "Bulathsinhala", "GND": "819C, Mahagama West", "Latitude": 6.593552, "Longitude": 80.156013, "Address": "Sri Sudharshanarama Mahaviharaya, Polegoda, Mahagama" }, "geometry": { "type": "Point", "coordinates": [ 80.156013, 6.593552 ] } },
{ "type": "Feature", "properties": { "Name": "Athwelthota", "ID": "SR021", "District": "Kalutara", "DSD": "Palindanuwara", "GND": "836B, Athwelthota", "Latitude": 6.543658, "Longitude": 80.283609, "Address": "Sri Gangaramaya Purana Viharaya, Athwelthota, Morapitiya" }, "geometry": { "type": "Point", "coordinates": [ 80.283609, 6.543658 ] } },
{ "type": "Feature", "properties": { "Name": "Dodangoda", "ID": "SR027", "District": "Kalutara", "DSD": "Dodangoda", "GND": null, "Latitude": 6.55306, "Longitude": 80.02331, "Address": "Divisional Secretariate Office\nDodangoda" }, "geometry": { "type": "Point", "coordinates": [ 80.02331, 6.55306 ] } },
{ "type": "Feature", "properties": { "Name": "Dunhinna", "ID": "L46", "District": "Kandy", "DSD": "Medadumbara", "GND": "Maneluwa", "Latitude": 7.3474, "Longitude": 80.7526, "Address": "CP/ TEL/ Dunhinna Secondary School,\nDunhinna, Verapitiya." }, "geometry": { "type": "Point", "coordinates": [ 80.7526, 7.3474 ] } },
{ "type": "Feature", "properties": { "Name": "Marassana", "ID": "L47", "District": "Kandy", "DSD": "Pathahewaheta", "GND": "Meeruppa", "Latitude": 7.2161, "Longitude": 80.7419, "Address": "Ka/ Marassana National School,\nMarassana." }, "geometry": { "type": "Point", "coordinates": [ 80.7419, 7.2161 ] } },
{ "type": "Feature", "properties": { "Name": "Kandy NTS", "ID": "L48", "District": "Kandy", "DSD": "Gangawata Korale", "GND": "Bogambara", "Latitude": 7.288, "Longitude": 80.6351, "Address": "Kandy NTS, Kandy." }, "geometry": { "type": "Point", "coordinates": [ 80.6351, 7.288 ] } },
{ "type": "Feature", "properties": { "Name": "Daskara", "ID": "L49", "District": "Kandy", "DSD": "Udunuwara", "GND": "Hathnagoda", "Latitude": 7.2076, "Longitude": 80.5778, "Address": "D. B. Wijethunga National School,\nDaskara, Muruthagahamula." }, "geometry": { "type": "Point", "coordinates": [ 80.5778, 7.2076 ] } },
{ "type": "Feature", "properties": { "Name": "Uduwa", "ID": "L50", "District": "Kandy", "DSD": "Thumpane", "GND": "Uduwa", "Latitude": 7.3609, "Longitude": 80.486, "Address": "CP/ KATU/ Uduwa Maha Vidyalaya,\nUduwa, Kandy." }, "geometry": { "type": "Point", "coordinates": [ 80.486, 7.3609 ] } },
{ "type": "Feature", "properties": { "Name": "DO_Kandy", "ID": "L72", "District": "Kandy", "DSD": "Yatinuwara", "GND": "Embilmeegama", "Latitude": 7.2656, "Longitude": 80.5648, "Address": "NBRO District Office, Kandy" }, "geometry": { "type": "Point", "coordinates": [ 80.5648, 7.2656 ] } },
{ "type": "Feature", "properties": { "Name": "Hindagala", "ID": "L73", "District": "Kandy", "DSD": "Gangawata Korale", "GND": "Hindagala", "Latitude": 7.2362, "Longitude": 80.6017, "Address": "K/ Seevali Maha Vidyalaya,\nHindagala." }, "geometry": { "type": "Point", "coordinates": [ 80.6017, 7.2362 ] } },
{ "type": "Feature", "properties": { "Name": "Holy Trinity", "ID": "L74", "District": "Kandy", "DSD": "Udapalatha", "GND": "Pussellawa", "Latitude": 7.1067, "Longitude": 80.6368, "Address": "Holy Trinity Church,\nNuwaraeliya Road,\nPussellawa." }, "geometry": { "type": "Point", "coordinates": [ 80.6368, 7.1067 ] } },
{ "type": "Feature", "properties": { "Name": "Kaikawala", "ID": "L75", "District": "Kandy", "DSD": "Ududumbara", "GND": "Kaikawala", "Latitude": 7.4286, "Longitude": 80.8454, "Address": "Hotel Meemure,\nKaikawala,\nWelangolla,\nMeemure." }, "geometry": { "type": "Point", "coordinates": [ 80.8454, 7.4286 ] } },
{ "type": "Feature", "properties": { "Name": "Kovilmada", "ID": "L76", "District": "Kandy", "DSD": "Ududumbara", "GND": "Gedaramada", "Latitude": 7.328, "Longitude": 80.8905, "Address": "Ceylon Tobacco Company,\nMahiyangana Road,\nUdudumbara." }, "geometry": { "type": "Point", "coordinates": [ 80.8905, 7.328 ] } },
{ "type": "Feature", "properties": { "Name": "Morahena", "ID": "L77", "District": "Kandy", "DSD": "Doluwa", "GND": "Thumpelawaka", "Latitude": 7.1604, "Longitude": 80.6698, "Address": "Divisional Hospital,\nMorahena." }, "geometry": { "type": "Point", "coordinates": [ 80.6698, 7.1604 ] } },
{ "type": "Feature", "properties": { "Name": "Nugathenna", "ID": "L78", "District": "Kandy", "DSD": "Ududumbara", "GND": "Nugethenna East", "Latitude": 7.2856, "Longitude": 80.8564, "Address": "CP/TEL/Nugethenna Maha Vidyalaya,\nNugethenna,\nHunnasgiriya." }, "geometry": { "type": "Point", "coordinates": [ 80.8564, 7.2856 ] } },
{ "type": "Feature", "properties": { "Name": "Pallewela", "ID": "L79", "District": "Kandy", "DSD": "Ududumbara", "GND": "Pallewela", "Latitude": 7.3583, "Longitude": 80.8814, "Address": "CP/TEL/Chulabaya Secondary School,\nPallewela,\nKahataliyadda." }, "geometry": { "type": "Point", "coordinates": [ 80.8814, 7.3583 ] } },
{ "type": "Feature", "properties": { "Name": "Thalathuoya", "ID": "L80", "District": "Kandy", "DSD": "Pathahewaheta", "GND": "Thalathuoya East", "Latitude": 7.2495, "Longitude": 80.6924, "Address": "Thalathuoya Tanil Maha Vidyalaya,\nThalathuoya." }, "geometry": { "type": "Point", "coordinates": [ 80.6924, 7.2495 ] } },
{ "type": "Feature", "properties": { "Name": "Udispaththuwa", "ID": "L81", "District": "Kandy", "DSD": "Medadumbara", "GND": "Kurukohogama", "Latitude": 7.3119, "Longitude": 80.7964, "Address": "CD/TEL/ Udispaththuwa Secondary School,\nUdispaththuwa." }, "geometry": { "type": "Point", "coordinates": [ 80.7964, 7.3119 ] } },
{ "type": "Feature", "properties": { "Name": "Menikdiwela", "ID": "M01", "District": "Kandy", "DSD": "Yatinuwara", "GND": "Pottepitiya", "Latitude": 7.2875, "Longitude": 80.4959, "Address": "Menikdiwela Royala Collage,\nMwnikdiwela." }, "geometry": { "type": "Point", "coordinates": [ 80.4959, 7.2875 ] } },
{ "type": "Feature", "properties": { "Name": "Muruthalawa", "ID": "M02", "District": "Kandy", "DSD": "Yatinuwara", "GND": "Dehigama North", "Latitude": 7.2995, "Longitude": 80.5681, "Address": "Pelawa Maha Vidyalaya,\nMuruthalawa." }, "geometry": { "type": "Point", "coordinates": [ 80.5681, 7.2995 ] } },
{ "type": "Feature", "properties": { "Name": "Katugastota", "ID": "M08", "District": "Kandy", "DSD": "Pathadumbara", "GND": "Molagodayawatta", "Latitude": 7.3412, "Longitude": 80.6202, "Address": "Hrticulture Research Farm,\nAmbathenna,\nMatale Road,\nKatogastota." }, "geometry": { "type": "Point", "coordinates": [ 80.6202, 7.3412 ] } },
{ "type": "Feature", "properties": { "Name": "Madugalla", "ID": "M19", "District": "Kandy", "DSD": "Doluwa", "GND": "Madugalla North", "Latitude": 7.2639, "Longitude": 80.8858, "Address": "Madugalla Maha Vidyalaya,\nMadugalla North,\nMadugalla." }, "geometry": { "type": "Point", "coordinates": [ 80.8858, 7.2639 ] } },
{ "type": "Feature", "properties": { "Name": "Nillambe", "ID": "M20", "District": "Kandy", "DSD": "Doluwa", "GND": "Nillambe", "Latitude": 7.1913, "Longitude": 80.6361, "Address": "Nillambe Maha Vidyalaya,\nNillambe." }, "geometry": { "type": "Point", "coordinates": [ 80.6361, 7.1913 ] } },
{ "type": "Feature", "properties": { "Name": "Ulapane", "ID": "M21", "District": "Kandy", "DSD": "Ganga Ihala Korale", "GND": "Ulapane North", "Latitude": 7.1102, "Longitude": 80.5651, "Address": "Ulapane Maha Vidyalaya,\nUlapane." }, "geometry": { "type": "Point", "coordinates": [ 80.5651, 7.1102 ] } },
{ "type": "Feature", "properties": { "Name": "Dolosbage", "ID": "R17", "District": "Kandy", "DSD": "Ganga Ihala Korale", "GND": "Miyanagolla", "Latitude": 7.0825, "Longitude": 80.4707, "Address": "Dolosbage Sinhala Vidyalaya, Dolosbage" }, "geometry": { "type": "Point", "coordinates": [ 80.4707, 7.0825 ] } },
{ "type": "Feature", "properties": { "Name": "Galaha", "ID": "R18", "District": "Kandy", "DSD": "Delthota", "GND": "Galaha", "Latitude": 7.1979, "Longitude": 80.6679, "Address": "Ramakrishna Central College, Galaha" }, "geometry": { "type": "Point", "coordinates": [ 80.6679, 7.1979 ] } },
{ "type": "Feature", "properties": { "Name": "Kadugannawa", "ID": "R19", "District": "Kandy", "DSD": "Udunuwara", "GND": "Ihala Kurukuttala", "Latitude": 7.2522, "Longitude": 80.5305, "Address": "Kurukuththala Vidyalaya, Kadugannawa" }, "geometry": { "type": "Point", "coordinates": [ 80.5305, 7.2522 ] } },
{ "type": "Feature", "properties": { "Name": "Kuruduwatta", "ID": "R20", "District": "Kandy", "DSD": "Ganga Ihala Korale", "GND": "Malwattagama", "Latitude": 7.1278, "Longitude": 80.5291, "Address": "Kurunduwaththa Royal College, Kurunduwaththa" }, "geometry": { "type": "Point", "coordinates": [ 80.5291, 7.1278 ] } },
{ "type": "Feature", "properties": { "Name": "M. Mahanuwara", "ID": "R21", "District": "Kandy", "DSD": "Medadumbara", "GND": "Bomure", "Latitude": 7.2865, "Longitude": 80.8145, "Address": "Medamahanuwara, Central College" }, "geometry": { "type": "Point", "coordinates": [ 80.8145, 7.2865 ] } },
{ "type": "Feature", "properties": { "Name": "Pussellawa", "ID": "R22", "District": "Kandy", "DSD": "Udapalatha", "GND": "Pallegama", "Latitude": 7.1243, "Longitude": 80.5988, "Address": "K/ Saraswathi Central College, Pussallawa" }, "geometry": { "type": "Point", "coordinates": [ 80.5988, 7.1243 ] } },
{ "type": "Feature", "properties": { "Name": "Ududumbara", "ID": "R23", "District": "Kandy", "DSD": "Udadumbara", "GND": "Udadumbara", "Latitude": 7.3169, "Longitude": 80.8784, "Address": "Ududumbara Secondary School" }, "geometry": { "type": "Point", "coordinates": [ 80.8784, 7.3169 ] } },
{ "type": "Feature", "properties": { "Name": "Teldeniya", "ID": "T04", "District": "Kandy", "DSD": "Medadumbara", "GND": "Ambagahalanda", "Latitude": 7.3085, "Longitude": 80.76307, "Address": "Teldeniya National School, Theldeniya" }, "geometry": { "type": "Point", "coordinates": [ 80.76307, 7.3085 ] } },
{ "type": "Feature", "properties": { "Name": "Poppitiya", "ID": "T05", "District": "Kandy", "DSD": "Udadumbara", "GND": "Oyathenna", "Latitude": 7.34925, "Longitude": 80.9109, "Address": "Oyathenna,Poppitiya, Abhinawarawaya, Ududumbara" }, "geometry": { "type": "Point", "coordinates": [ 80.9109, 7.34925 ] } },
{ "type": "Feature", "properties": { "Name": "Wattegama", "ID": "T07", "District": "Kandy", "DSD": "Pathadumbara", "GND": "Part of Wattegama North", "Latitude": 7.3485, "Longitude": 80.6839, "Address": "Wattegama Central College, Wattegama" }, "geometry": { "type": "Point", "coordinates": [ 80.6839, 7.3485 ] } },
{ "type": "Feature", "properties": { "Name": "Galagedara", "ID": "T08", "District": "Kandy", "DSD": "Thumpane", "GND": "Galagedara West", "Latitude": 7.3692, "Longitude": 80.5196, "Address": "Galagedara Centra College(National School), Galagedara" }, "geometry": { "type": "Point", "coordinates": [ 80.5196, 7.3692 ] } },
{ "type": "Feature", "properties": { "Name": "Gampola", "ID": "T09", "District": "Kandy", "DSD": "Udapalatha", "GND": "Illawathura", "Latitude": 7.1652, "Longitude": 80.572, "Address": "Gampola Buddhist College, No:76, Gampola" }, "geometry": { "type": "Point", "coordinates": [ 80.572, 7.1652 ] } },
{ "type": "Feature", "properties": { "Name": "Nawalapitiya", "ID": "T10", "District": "Kandy", "DSD": "Pasbage Korale", "GND": "Nawalapitiya South", "Latitude": 7.0537, "Longitude": 80.5271, "Address": "Anuruddha Kumara Natonal School Nawalapitiya" }, "geometry": { "type": "Point", "coordinates": [ 80.5271, 7.0537 ] } },
{ "type": "Feature", "properties": { "Name": "Westhall", "ID": "T61", "District": "Kandy", "DSD": "Pasbage Korale", "GND": null, "Latitude": 6.9871, "Longitude": 80.5691, "Address": "Westhall Estate, Rilagala." }, "geometry": { "type": "Point", "coordinates": [ 80.5691, 6.9871 ] } },
{ "type": "Feature", "properties": { "Name": "Pupuressa", "ID": "T62", "District": "Kandy", "DSD": "Doluwa", "GND": "Pupuressa", "Latitude": 7.1201, "Longitude": 80.6702, "Address": "Delta Estate, Pupuressa." }, "geometry": { "type": "Point", "coordinates": [ 80.6702, 7.1201 ] } },
{ "type": "Feature", "properties": { "Name": "Deltota", "ID": "T63", "District": "Kandy", "DSD": "Deltota", "GND": "Bopitiya Town", "Latitude": 7.1845, "Longitude": 80.7154, "Address": "Bopitiya Tamil School, Bopitiya Watta, Deltota." }, "geometry": { "type": "Point", "coordinates": [ 80.7154, 7.1845 ] } },
{ "type": "Feature", "properties": { "Name": "Minipe", "ID": "T64", "District": "Kandy", "DSD": "Minipe", "GND": "Minipe", "Latitude": 7.2318, "Longitude": 80.9991, "Address": "Minipe Secondary School, Ambagahapelessa." }, "geometry": { "type": "Point", "coordinates": [ 80.9991, 7.2318 ] } },
{ "type": "Feature", "properties": { "Name": "Pitawala", "ID": "T65", "District": "Kandy", "DSD": "Udadumbara", "GND": "Hapukanda East - 865", "Latitude": 7.2778, "Longitude": 80.9041, "Address": "Hapukanda Primary School," }, "geometry": { "type": "Point", "coordinates": [ 80.9041, 7.2778 ] } },
{ "type": "Feature", "properties": { "Name": "Makuldeniya", "ID": "T66", "District": "Kandy", "DSD": "Medadumbara", "GND": "Makuldeniya", "Latitude": 7.3317, "Longitude": 80.7747, "Address": "Getangahawela Plantation (Pvt) Ltd, Makuldeniya." }, "geometry": { "type": "Point", "coordinates": [ 80.7747, 7.3317 ] } },
{ "type": "Feature", "properties": { "Name": "Panwila", "ID": "T67", "District": "Kandy", "DSD": "Panwila", "GND": "Kosgama - 739", "Latitude": 7.4041, "Longitude": 80.7483, "Address": "Kandeketiya Secondary Schoool, Madolkele." }, "geometry": { "type": "Point", "coordinates": [ 80.7483, 7.4041 ] } },
{ "type": "Feature", "properties": { "Name": "Poojapitiya", "ID": "T68", "District": "Kandy", "DSD": "Poojapitiya", "GND": "Dolapihilla South", "Latitude": 7.3901, "Longitude": 80.5789, "Address": "Dolapihilla Maha Vidyalaya, Dolopihilla, Poojapityaya." }, "geometry": { "type": "Point", "coordinates": [ 80.5789, 7.3901 ] } },
{ "type": "Feature", "properties": { "Name": "Weliwita", "ID": "T69", "District": "Kandy", "DSD": "Hatharaliyadda", "GND": "Weliwita Ihalagama North", "Latitude": 7.3266, "Longitude": 80.5021, "Address": "Agrarian Services center, Wewita Ihalagama, Sangarajapura." }, "geometry": { "type": "Point", "coordinates": [ 80.5021, 7.3266 ] } },
{ "type": "Feature", "properties": { "Name": "Pooliyadda", "ID": "SR005", "District": "Kandy", "DSD": "Pathahewaheta", "GND": "Pooliyadda", "Latitude": 7.244475, "Longitude": 80.657695, "Address": "Abhinawaramaya Viharaya, Pooliyadda, Ethulgama" }, "geometry": { "type": "Point", "coordinates": [ 80.657695, 7.244475 ] } },
{ "type": "Feature", "properties": { "Name": "Digana", "ID": "SR006", "District": "Kandy", "DSD": "Kundasale", "GND": null, "Latitude": 7.29618, "Longitude": 80.736128, "Address": "Sri Rajawalukaramaya, Rajawella, New Town Digana" }, "geometry": { "type": "Point", "coordinates": [ 80.736128, 7.29618 ] } },
{ "type": "Feature", "properties": { "Name": "Maweekumbura", "ID": "SR007", "District": "Kandy", "DSD": "Udunuwara", "GND": "Maweekumbura Right", "Latitude": 7.193092, "Longitude": 80.537735, "Address": "Sri Bodhirajaramaya, Maweekumbura Right, Welambada" }, "geometry": { "type": "Point", "coordinates": [ 80.537735, 7.193092 ] } },
{ "type": "Feature", "properties": { "Name": "Kalugaloya", "ID": "SR008", "District": "Kandy", "DSD": "Ududumbara", "GND": "Kalugaloya", "Latitude": 7.384597, "Longitude": 80.897076, "Address": "Sri Pushparamaya, Kalugaloya, Kalugala" }, "geometry": { "type": "Point", "coordinates": [ 80.897076, 7.384597 ] } },
{ "type": "Feature", "properties": { "Name": "Medawala", "ID": "SR028", "District": "Kandy", "DSD": "Harispaththuwa", "GND": "Medawala", "Latitude": 7.3577, "Longitude": 80.5663, "Address": "Medawala Divisional Hospital, Hedeniya - Poojapitiya Rd, Medawala" }, "geometry": { "type": "Point", "coordinates": [ 80.5663, 7.3577 ] } },
{ "type": "Feature", "properties": { "Name": "Panwilathenna", "ID": "SR029", "District": "Kandy", "DSD": "Doluwa", "GND": "Panwilathenna", "Latitude": 7.1558, "Longitude": 80.6322, "Address": "Panvilathenna Temple, Doluwa." }, "geometry": { "type": "Point", "coordinates": [ 80.6322, 7.1558 ] } },
{ "type": "Feature", "properties": { "Name": "Theligama", "ID": "L37", "District": "Kegalle", "DSD": "Yatiyanthota", "GND": "Theligama", "Latitude": 6.9988, "Longitude": 80.3652, "Address": "Kithulgala District Hospital,\nKithulgala,\nTheligama." }, "geometry": { "type": "Point", "coordinates": [ 80.3652, 6.9988 ] } },
{ "type": "Feature", "properties": { "Name": "Haming Ford", "ID": "L38", "District": "Kegalle", "DSD": "Dehiowita", "GND": "Elavulla", "Latitude": 6.8473, "Longitude": 80.3259, "Address": "Haming Ford Estate,\nParakaduwa." }, "geometry": { "type": "Point", "coordinates": [ 80.3259, 6.8473 ] } },
{ "type": "Feature", "properties": { "Name": "Imbulpitiya", "ID": "L39", "District": "Kegalle", "DSD": "Dehiowita", "GND": "Imbulpitiya", "Latitude": 6.8655, "Longitude": 80.3391, "Address": "Imbulpitiya Primary School,\nImbulpitiya,\nGodagampola." }, "geometry": { "type": "Point", "coordinates": [ 80.3391, 6.8655 ] } },
{ "type": "Feature", "properties": { "Name": "Anwarama", "ID": "L82", "District": "Kegalle", "DSD": "Mawanella", "GND": "Mawela", "Latitude": 7.2432, "Longitude": 80.492, "Address": "Sri Maha Bodhi Piriwena,\nAnwarama,\nHingula." }, "geometry": { "type": "Point", "coordinates": [ 80.492, 7.2432 ] } },
{ "type": "Feature", "properties": { "Name": "Hemmathagama", "ID": "L83", "District": "Kegalle", "DSD": "Mawanella", "GND": "Ginihappitiya", "Latitude": 7.1732, "Longitude": 80.5001, "Address": "KG/MW/ Nagaragiri Maha Vidyalaya,\nHemmathagama." }, "geometry": { "type": "Point", "coordinates": [ 80.5001, 7.1732 ] } },
{ "type": "Feature", "properties": { "Name": "Morontota", "ID": "L84", "District": "Kegalle", "DSD": "Kegalle", "GND": "Hungampola", "Latitude": 7.1757, "Longitude": 80.3609, "Address": "National Water Supply & Drainage Board,\nMorontota,\nKegalle." }, "geometry": { "type": "Point", "coordinates": [ 80.3609, 7.1757 ] } },
{ "type": "Feature", "properties": { "Name": "Sapumalkanda", "ID": "L85", "District": "Kegalle", "DSD": "Dehiowita", "GND": "Walpola", "Latitude": 6.9601, "Longitude": 80.3117, "Address": "Sapumal Kanda Tea Factory,\nDel Oluwa,\nDeraniyagala." }, "geometry": { "type": "Point", "coordinates": [ 80.3117, 6.9601 ] } },
{ "type": "Feature", "properties": { "Name": "Wee Oya", "ID": "L86", "District": "Kegalle", "DSD": "Yatiyanthota", "GND": "Jayawindagama", "Latitude": 7.0475, "Longitude": 80.3204, "Address": "We Oya Estate,\nYatiyantota." }, "geometry": { "type": "Point", "coordinates": [ 80.3204, 7.0475 ] } },
{ "type": "Feature", "properties": { "Name": "Alawwa", "ID": "M03", "District": "Kegalle", "DSD": "Warakapola", "GND": "Akwatte", "Latitude": 7.2601, "Longitude": 80.2521, "Address": "Sri Bodhirukkaramaya\nKahabiliyawala\nAlawwa" }, "geometry": { "type": "Point", "coordinates": [ 80.2521, 7.2601 ] } },
{ "type": "Feature", "properties": { "Name": "Warakapola", "ID": "M04", "District": "Kegalle", "DSD": "Warakapola", "GND": "Dummaladeniya", "Latitude": 7.2261, "Longitude": 80.1913, "Address": "Sri Seela Sugandama Purana Viharaya\nMeneripitiya,\nWarakapola" }, "geometry": { "type": "Point", "coordinates": [ 80.1913, 7.2261 ] } },
{ "type": "Feature", "properties": { "Name": "Boyagama", "ID": "M22", "District": "Kegalle", "DSD": "Galigamuwa", "GND": "Asideniya", "Latitude": 7.2266, "Longitude": 80.3054, "Address": "Boyagama Maha Vidyalaya\nGaligamuwa Town" }, "geometry": { "type": "Point", "coordinates": [ 80.3054, 7.2266 ] } },
{ "type": "Feature", "properties": { "Name": "Deewela", "ID": "M23", "District": "Kegalle", "DSD": "Kegalle", "GND": "Deewela Pallegama", "Latitude": 7.2206, "Longitude": 80.3895, "Address": "Deewela Maha Vidyalaya,\nDeewela Pallegama" }, "geometry": { "type": "Point", "coordinates": [ 80.3895, 7.2206 ] } },
{ "type": "Feature", "properties": { "Name": "Dotheloya Estate", "ID": "M24", "District": "Kegalle", "DSD": "Aranayake", "GND": "Ganthuna Medagama", "Latitude": 7.1166, "Longitude": 80.4238, "Address": "Dothel Oya Estate,\nDolosbage.\n doteloya.kpl@arpico.com" }, "geometry": { "type": "Point", "coordinates": [ 80.4238, 7.1166 ] } },
{ "type": "Feature", "properties": { "Name": "Galapitamada", "ID": "M25", "District": "Kegalle", "DSD": "Ruwanwella", "GND": "Galapitamada", "Latitude": 7.1412, "Longitude": 80.2345, "Address": "Walagamba Maha Vidyalaya\nGalapitamada" }, "geometry": { "type": "Point", "coordinates": [ 80.2345, 7.1412 ] } },
{ "type": "Feature", "properties": { "Name": "Kotawella", "ID": "M26", "District": "Kegalle", "DSD": "Rambukkana", "GND": "Kotawella", "Latitude": 7.3601, "Longitude": 80.395, "Address": "Kotawella Primary School,\nKotawella" }, "geometry": { "type": "Point", "coordinates": [ 80.395, 7.3601 ] } },
{ "type": "Feature", "properties": { "Name": "Ussapitiya", "ID": "M27", "District": "Kegalle", "DSD": "Aranayake", "GND": "Kariyagama", "Latitude": 7.2118, "Longitude": 80.4575, "Address": "Mawathagoda Rivisanda Central Collage\nUssapitiya" }, "geometry": { "type": "Point", "coordinates": [ 80.4575, 7.2118 ] } },
{ "type": "Feature", "properties": { "Name": "Yatideriya Estate", "ID": "M28", "District": "Kegalle", "DSD": "Bulathkohupitiya", "GND": "Rangalla", "Latitude": 7.1311, "Longitude": 80.3572, "Address": "Yatideriya Estate, Undugoda. yatideriya.kpl@arpico.com" }, "geometry": { "type": "Point", "coordinates": [ 80.3572, 7.1311 ] } },
{ "type": "Feature", "properties": { "Name": "Aranayake", "ID": "R27", "District": "Kegalle", "DSD": "Aranayaka", "GND": "Pannala", "Latitude": 7.159, "Longitude": 80.4615, "Address": "Sri Wijesundararamaya, Welimanna, Aranayake" }, "geometry": { "type": "Point", "coordinates": [ 80.4615, 7.159 ] } },
{ "type": "Feature", "properties": { "Name": "Dedigama", "ID": "R28", "District": "Kegalle", "DSD": "Warakapola", "GND": "Dedigama", "Latitude": 7.2062, "Longitude": 80.2625, "Address": "Dedigama Parakumba M.V" }, "geometry": { "type": "Point", "coordinates": [ 80.2625, 7.2062 ] } },
{ "type": "Feature", "properties": { "Name": "Dehiovita", "ID": "R29", "District": "Kegalle", "DSD": "Dehiowita", "GND": "Pukunuwala", "Latitude": 6.8926, "Longitude": 80.274, "Address": "Ranjan Wijerathna Maha Vidyalaya, Dehiovita" }, "geometry": { "type": "Point", "coordinates": [ 80.274, 6.8926 ] } },
{ "type": "Feature", "properties": { "Name": "Deraniyagala", "ID": "R30", "District": "Kegalle", "DSD": "Deraniyagala", "GND": "Basnagala", "Latitude": 6.9394, "Longitude": 80.4043, "Address": "Basnagala Central College, Deraniyagala" }, "geometry": { "type": "Point", "coordinates": [ 80.4043, 6.9394 ] } },
{ "type": "Feature", "properties": { "Name": "Gatiyamulla", "ID": "R31", "District": "Kegalle", "DSD": "Bulathkohupitiya", "GND": "Alawathura", "Latitude": 7.1373, "Longitude": 80.3272, "Address": "K/Gaamini Abhaya maha vidyalaya, Gatiyamulla" }, "geometry": { "type": "Point", "coordinates": [ 80.3272, 7.1373 ] } },
{ "type": "Feature", "properties": { "Name": "Kegalu MV", "ID": "R32", "District": "Kegalle", "DSD": "Kegalle", "GND": "Golahela", "Latitude": 7.2509, "Longitude": 80.3496, "Address": "Kegalu Maha Vidyalaya, Kegalle" }, "geometry": { "type": "Point", "coordinates": [ 80.3496, 7.2509 ] } },
{ "type": "Feature", "properties": { "Name": "Kitulgala", "ID": "R33", "District": "Kegalle", "DSD": "Yatiyanthota", "GND": "Kalukohuthenna", "Latitude": 7.0003, "Longitude": 80.4093, "Address": "Kithulgala Balika Vidyalaya" }, "geometry": { "type": "Point", "coordinates": [ 80.4093, 7.0003 ] } },
{ "type": "Feature", "properties": { "Name": "Yatiyanthota", "ID": "T16", "District": "Kegalle", "DSD": "Yatiyanthota", "GND": "Yatiyanthota", "Latitude": 7.03398, "Longitude": 80.2895, "Address": "KA/DEHI/Dr.N.M Perera Central College Yatiyanthota." }, "geometry": { "type": "Point", "coordinates": [ 80.2895, 7.03398 ] } },
{ "type": "Feature", "properties": { "Name": "Maliboda", "ID": "T70", "District": "Kegalle", "DSD": "Deraniyagala", "GND": "Uda Maliboda", "Latitude": 6.8911, "Longitude": 80.4282, "Address": "Maliboda Estate, Deraniyagala, Maliboda." }, "geometry": { "type": "Point", "coordinates": [ 80.4282, 6.8911 ] } },
{ "type": "Feature", "properties": { "Name": "Ganthuna", "ID": "T71", "District": "Kegalle", "DSD": "Kegalle", "GND": "Ganthuna", "Latitude": 7.1336, "Longitude": 80.3992, "Address": "Kandurata Maha Vidyalaya, Ganthuna." }, "geometry": { "type": "Point", "coordinates": [ 80.3992, 7.1336 ] } },
{ "type": "Feature", "properties": { "Name": "Lenagala", "ID": "T72", "District": "Kegalle", "DSD": "Warakapola", "GND": "Pahala Lenagala", "Latitude": 7.1212, "Longitude": 80.2659, "Address": "Lenagala Maha Vidyalaya, Lenagala, Weragala." }, "geometry": { "type": "Point", "coordinates": [ 80.2659, 7.1212 ] } },
{ "type": "Feature", "properties": { "Name": "Mawanella", "ID": "T73", "District": "Kegalle", "DSD": "Mawanella", "GND": "Mawanella", "Latitude": 7.2489, "Longitude": 80.4429, "Address": "Divisional Secrtatiate, Mawanella." }, "geometry": { "type": "Point", "coordinates": [ 80.4429, 7.2489 ] } },
{ "type": "Feature", "properties": { "Name": "Kadigamuwa", "ID": "T74", "District": "Kegalle", "DSD": "Rambukkana", "GND": "Kadigamuwa", "Latitude": 7.3161, "Longitude": 80.4315, "Address": "Vidyathilak Vidyalaya, Kadigamuwa, Paththampitiya." }, "geometry": { "type": "Point", "coordinates": [ 80.4315, 7.3161 ] } },
{ "type": "Feature", "properties": { "Name": "Amithirigala", "ID": "T75", "District": "Kegalle", "DSD": "Ruwanwella", "GND": "Amithirigala North", "Latitude": 7.0343, "Longitude": 80.1827, "Address": "Sri Dharmaloka Purana Viharaya, Amithirigala North." }, "geometry": { "type": "Point", "coordinates": [ 80.1827, 7.0343 ] } },
{ "type": "Feature", "properties": { "Name": "Moodugamuwa", "ID": "SR011", "District": "Kegalle", "DSD": "Ruwanwella", "GND": null, "Latitude": 7.070288, "Longitude": 80.265927, "Address": "Sri Wickramaraja Viharaya, Moodugamuwa, Ruwanwella" }, "geometry": { "type": "Point", "coordinates": [ 80.265927, 7.070288 ] } },
{ "type": "Feature", "properties": { "Name": "Amanawala", "ID": "SR012", "District": "Kegalle", "DSD": "Yatiyanthota", "GND": null, "Latitude": 7.067339, "Longitude": 80.388352, "Address": "Sri Dharmarama Viharaya, Amanawala, Berannawa" }, "geometry": { "type": "Point", "coordinates": [ 80.388352, 7.067339 ] } },
{ "type": "Feature", "properties": { "Name": "Kamburapola", "ID": "SR013", "District": "Kegalle", "DSD": "Dehiowita", "GND": "Uduwila", "Latitude": 6.985138, "Longitude": 80.235333, "Address": "Sri Abhinawaramaya, Kamburapola, Dehiowita" }, "geometry": { "type": "Point", "coordinates": [ 80.235333, 6.985138 ] } },
{ "type": "Feature", "properties": { "Name": "Lihinivehera", "ID": "L40", "District": "Kurunegala", "DSD": "Rideegama", "GND": "Nuwarayaya", "Latitude": 7.5559, "Longitude": 80.5124, "Address": "Lihinivehera Primary School,\nDodangaslanda." }, "geometry": { "type": "Point", "coordinates": [ 80.5124, 7.5559 ] } },
{ "type": "Feature", "properties": { "Name": "Maharachchimulla", "ID": "L87", "District": "Kurunegala", "DSD": "Alawwa", "GND": "Maharachchimulla", "Latitude": 7.339, "Longitude": 80.215, "Address": "Kandegedara Maha Vidyalaya,\nKandegedara,\nMaharachchimulla." }, "geometry": { "type": "Point", "coordinates": [ 80.215, 7.339 ] } },
{ "type": "Feature", "properties": { "Name": "Polgahawela", "ID": "L88", "District": "Kurunegala", "DSD": "Polgahawela", "GND": "Ganegoda South", "Latitude": 7.3369, "Longitude": 80.3025, "Address": "St. Bernadette Model School,\nPolgahawela." }, "geometry": { "type": "Point", "coordinates": [ 80.3025, 7.3369 ] } },
{ "type": "Feature", "properties": { "Name": "Dambadeniya", "ID": "M05", "District": "Kurunegala", "DSD": "Narammala", "GND": "Dambadeniya South", "Latitude": 7.3665, "Longitude": 80.1501, "Address": "Siri Perakumba Central Collage,\nDambadeniya." }, "geometry": { "type": "Point", "coordinates": [ 80.1501, 7.3665 ] } },
{ "type": "Feature", "properties": { "Name": "Weuda", "ID": "M06", "District": "Kurunegala", "DSD": "Mawathagama", "GND": "Bandaragala", "Latitude": 7.4123, "Longitude": 80.4828, "Address": "Weuda Raoyal Central Collage,\nWeuda." }, "geometry": { "type": "Point", "coordinates": [ 80.4828, 7.4123 ] } },
{ "type": "Feature", "properties": { "Name": "Delvita", "ID": "M29", "District": "Kurunegala", "DSD": "Rideegama", "GND": "Delvita", "Latitude": 7.5042, "Longitude": 80.5459, "Address": "Delvita Maha Vidyalaya,\nDelvita" }, "geometry": { "type": "Point", "coordinates": [ 80.5459, 7.5042 ] } },
{ "type": "Feature", "properties": { "Name": "Maduragoda", "ID": "M30", "District": "Kurunegala", "DSD": "Rideegama", "GND": "Kelemulla", "Latitude": 7.5906, "Longitude": 80.5533, "Address": "Weera Walagamb Maha Vidyalaya,\nMaduragoda." }, "geometry": { "type": "Point", "coordinates": [ 80.5533, 7.5906 ] } },
{ "type": "Feature", "properties": { "Name": "Ridigama", "ID": "R34", "District": "Kurunegala", "DSD": "Rideegama", "GND": "Hadiramulla", "Latitude": 7.48, "Longitude": 80.4991, "Address": "Ranthatikanda Kanishta Vidyala,  Panagamuwa" }, "geometry": { "type": "Point", "coordinates": [ 80.4991, 7.48 ] } },
{ "type": "Feature", "properties": { "Name": "Walpolakanda", "ID": "R35", "District": "Kurunegala", "DSD": "Mallawapitiya", "GND": "Walpolakanda North", "Latitude": 7.4364, "Longitude": 80.4036, "Address": "Arya Uposhatharamaya, Walpolakanda" }, "geometry": { "type": "Point", "coordinates": [ 80.4036, 7.4364 ] } },
{ "type": "Feature", "properties": { "Name": "Udakendawala", "ID": "T80", "District": "Kurunegala", "DSD": "Ibbagamuwa", "GND": "Raa Gedara", "Latitude": 7.6375, "Longitude": 80.5316, "Address": "Udakendawala Vidyalaya, Udakendawala." }, "geometry": { "type": "Point", "coordinates": [ 80.5316, 7.6375 ] } },
{ "type": "Feature", "properties": { "Name": "Yatawattha", "ID": "L41", "District": "Matale", "DSD": "Yatawatta", "GND": "Mediyawala", "Latitude": 7.5655, "Longitude": 80.5843, "Address": "Vidyadaharshi Primary School,\nYatawatta." }, "geometry": { "type": "Point", "coordinates": [ 80.5843, 7.5655 ] } },
{ "type": "Feature", "properties": { "Name": "Naula", "ID": "L42", "District": "Matale", "DSD": "Naula", "GND": "Naula", "Latitude": 7.707, "Longitude": 80.6549, "Address": "CP/NA/ Sri Naga Model Primary School,\nNaula." }, "geometry": { "type": "Point", "coordinates": [ 80.6549, 7.707 ] } },
{ "type": "Feature", "properties": { "Name": "Hettipola", "ID": "L43", "District": "Matale", "DSD": "Wilgamuwa", "GND": "Hettipola", "Latitude": 7.5409, "Longitude": 80.9159, "Address": "Divisional Secretariate,\nWilgamuwa." }, "geometry": { "type": "Point", "coordinates": [ 80.9159, 7.5409 ] } },
{ "type": "Feature", "properties": { "Name": "Owilkanda", "ID": "L44", "District": "Matale", "DSD": "Ukuwela", "GND": "Katuathawane", "Latitude": 7.4592, "Longitude": 80.589, "Address": "CP/ UK/ Owilkanda Maha Vidyalaya,\nOwilkanda,\nMatale." }, "geometry": { "type": "Point", "coordinates": [ 80.589, 7.4592 ] } },
{ "type": "Feature", "properties": { "Name": "Kandenuwara", "ID": "L45", "District": "Matale", "DSD": "Rattota", "GND": "East Kandenuwara", "Latitude": 7.4528, "Longitude": 80.6837, "Address": "MT/ Rat/ Kandenuwara Tamil Maha Vidyalaya, Kandenuwara, Alwatta." }, "geometry": { "type": "Point", "coordinates": [ 80.6837, 7.4528 ] } },
{ "type": "Feature", "properties": { "Name": "Puwakpitiya", "ID": "L89", "District": "Matale", "DSD": "Laggala Pallegama", "GND": "Gangala - Puwakpitiya", "Latitude": 7.5813, "Longitude": 80.7475, "Address": "Puwakpitiya Primary School,\nGangala,\nPuwakpitiya,\nMatale." }, "geometry": { "type": "Point", "coordinates": [ 80.7475, 7.5813 ] } },
{ "type": "Feature", "properties": { "Name": "Damanayaya", "ID": "M07", "District": "Matale", "DSD": "Naula", "GND": "Damanayaya", "Latitude": 7.7917, "Longitude": 80.8025, "Address": "Sri Anandaramaya,\nDampuragama\nBakamuna." }, "geometry": { "type": "Point", "coordinates": [ 80.8025, 7.7917 ] } },
{ "type": "Feature", "properties": { "Name": "Ankanda", "ID": "M31", "District": "Matale", "DSD": "Ambanganga Korale", "GND": "Hathamunagala", "Latitude": 7.5802, "Longitude": 80.653, "Address": "Ankanda Mini Hydro Power House\nAnkanda." }, "geometry": { "type": "Point", "coordinates": [ 80.653, 7.5802 ] } },
{ "type": "Feature", "properties": { "Name": "Hunugalla Estate", "ID": "M32", "District": "Matale", "DSD": "Rattota", "GND": "Hangarankanda", "Latitude": 7.4384, "Longitude": 80.6876, "Address": "Hunugalla Estate, Elkaduwa, Matale." }, "geometry": { "type": "Point", "coordinates": [ 80.6876, 7.4384 ] } },
{ "type": "Feature", "properties": { "Name": "Pallepola", "ID": "M33", "District": "Matale", "DSD": "Pallepola", "GND": "Pallepola South", "Latitude": 7.6191, "Longitude": 80.6049, "Address": "CP/G/ Mahabodhi Secondary School,\nPallepola." }, "geometry": { "type": "Point", "coordinates": [ 80.6049, 7.6191 ] } },
{ "type": "Feature", "properties": { "Name": "Alkaduwa", "ID": "R24", "District": "Matale", "DSD": "Ukuwela", "GND": "Elkaduwa Watta", "Latitude": 7.4182, "Longitude": 80.6822, "Address": "Elkaduwa Sinhala Vidyalaya" }, "geometry": { "type": "Point", "coordinates": [ 80.6822, 7.4182 ] } },
{ "type": "Feature", "properties": { "Name": "Gammaduwa", "ID": "R25", "District": "Matale", "DSD": "Ambanganga Korale", "GND": "Pussella", "Latitude": 7.5581, "Longitude": 80.6804, "Address": "Nawodya School, Gammaduwa,Mathale" }, "geometry": { "type": "Point", "coordinates": [ 80.6804, 7.5581 ] } },
{ "type": "Feature", "properties": { "Name": "Riverstan", "ID": "R26", "District": "Matale", "DSD": "Laggala Pallegama", "GND": "Mahalakotuwa", "Latitude": 7.531, "Longitude": 80.7536, "Address": "Pitawala Temple- Sri Bodhirokkaramaya" }, "geometry": { "type": "Point", "coordinates": [ 80.7536, 7.531 ] } },
{ "type": "Feature", "properties": { "Name": "Rambuke Ela", "ID": "T76", "District": "Matale", "DSD": "Akurana", "GND": "Rambuke Ela", "Latitude": 7.4263, "Longitude": 80.5911, "Address": "Jumma Mosque, Rambuke Ela, Wilanagama." }, "geometry": { "type": "Point", "coordinates": [ 80.5911, 7.4263 ] } },
{ "type": "Feature", "properties": { "Name": "Ukuwela", "ID": "T77", "District": "Matale", "DSD": "Ukuwela", "GND": "Ukuwela", "Latitude": 7.4219, "Longitude": 80.6352, "Address": "Ajmeer National School, Ukuwela." }, "geometry": { "type": "Point", "coordinates": [ 80.6352, 7.4219 ] } },
{ "type": "Feature", "properties": { "Name": "Laggala", "ID": "T78", "District": "Matale", "DSD": "Laggala", "GND": null, "Latitude": 7.5935, "Longitude": 80.8392, "Address": "Laggala-Pallegama Pradeshiya Saba, Laggala." }, "geometry": { "type": "Point", "coordinates": [ 80.8392, 7.5935 ] } },
{ "type": "Feature", "properties": { "Name": "Kongalawela", "ID": "T79", "District": "Matale", "DSD": "Naula", "GND": "Kongahawela", "Latitude": 7.6831, "Longitude": 80.7121, "Address": "Divisional Hospital, Kongahawela." }, "geometry": { "type": "Point", "coordinates": [ 80.7121, 7.6831 ] } },
{ "type": "Feature", "properties": { "Name": "Dunkalawaththa", "ID": "SR009", "District": "Matale", "DSD": "Matale", "GND": null, "Latitude": 7.5094, "Longitude": 80.6287, "Address": "Sri Sumangalaramaya, Dunkalawaththa, Matale" }, "geometry": { "type": "Point", "coordinates": [ 80.6287, 7.5094 ] } },
{ "type": "Feature", "properties": { "Name": "Bandarapola Tea Factory", "ID": "SR010", "District": "Matale", "DSD": "Raththota", "GND": "Alwaththa", "Latitude": 7.453075, "Longitude": 80.668908, "Address": "Bandarapola Tea Factory" }, "geometry": { "type": "Point", "coordinates": [ 80.668908, 7.453075 ] } },
{ "type": "Feature", "properties": { "Name": "Viharahena", "ID": "L09", "District": "Matara", "DSD": "Kotapola", "GND": "Viharahena", "Latitude": 6.3674, "Longitude": 80.594, "Address": "Sri Vijayaramaya,\nViharahena,\nDeniyaya." }, "geometry": { "type": "Point", "coordinates": [ 80.594, 6.3674 ] } },
{ "type": "Feature", "properties": { "Name": "Akuressa", "ID": "L90", "District": "Matara", "DSD": "Athuraliya", "GND": "Hawupe", "Latitude": 6.1351, "Longitude": 80.4905, "Address": "Tea Factory,\nUruwala Estate,\nPorutota,\nAkuressa." }, "geometry": { "type": "Point", "coordinates": [ 80.4905, 6.1351 ] } },
{ "type": "Feature", "properties": { "Name": "Koodaludeniya", "ID": "M34", "District": "Matara", "DSD": "Kotapola", "GND": "Koodaludeniya", "Latitude": 6.2751, "Longitude": 80.5392, "Address": "Yalta Tea Factory,\nWaralla" }, "geometry": { "type": "Point", "coordinates": [ 80.5392, 6.2751 ] } },
{ "type": "Feature", "properties": { "Name": "Kalubowitiyana", "ID": "R51", "District": "Matara", "DSD": "Pitabeddara", "GND": "Ambewela", "Latitude": 6.3115, "Longitude": 80.3941, "Address": "Kalubowitiyana CTC Tea Factory, Kalubowitiyana" }, "geometry": { "type": "Point", "coordinates": [ 80.3941, 6.3115 ] } },
{ "type": "Feature", "properties": { "Name": "Morawaka", "ID": "R52", "District": "Matara", "DSD": "Pitabeddara", "GND": "Weliwa", "Latitude": 6.2564, "Longitude": 80.4935, "Address": "Morawaka Police Station, Morawaka" }, "geometry": { "type": "Point", "coordinates": [ 80.4935, 6.2564 ] } },
{ "type": "Feature", "properties": { "Name": "Pallegama", "ID": "R53", "District": "Matara", "DSD": "Kotapola", "GND": "Pallegama North", "Latitude": 6.3282, "Longitude": 80.5214, "Address": "Sri Keththaramaya, Pallegama, Kolawenigama" }, "geometry": { "type": "Point", "coordinates": [ 80.5214, 6.3282 ] } },
{ "type": "Feature", "properties": { "Name": "Bengamuwa", "ID": "R54", "District": "Matara", "DSD": "Pasgoda", "GND": "Bengamuwa West", "Latitude": 6.2607, "Longitude": 80.5971, "Address": "Lakvinka Tea Factory, Bengamuwa, Pasgoda" }, "geometry": { "type": "Point", "coordinates": [ 80.5971, 6.2607 ] } },
{ "type": "Feature", "properties": { "Name": "Urubokka", "ID": "R55", "District": "Matara", "DSD": "Pasgoda", "GND": "Urubokka", "Latitude": 6.2939, "Longitude": 80.6312, "Address": "Fortune Tea Factory, Kiripitiya, Urubokka" }, "geometry": { "type": "Point", "coordinates": [ 80.6312, 6.2939 ] } },
{ "type": "Feature", "properties": { "Name": "Kokmaduwa", "ID": "T06", "District": "Matara", "DSD": "Welipitiya", "GND": "Nalawana", "Latitude": 6.02478, "Longitude": 80.4235, "Address": "Kokmaduwa 114 th Post Sourthen Highway" }, "geometry": { "type": "Point", "coordinates": [ 80.4235, 6.02478 ] } },
{ "type": "Feature", "properties": { "Name": "Malimboda", "ID": "T36", "District": "Matara", "DSD": "Malimboda", "GND": "Akurgoda North", "Latitude": 6.0116, "Longitude": 80.4879, "Address": "Akurugoda Senani Primary School, Thelijjawila." }, "geometry": { "type": "Point", "coordinates": [ 80.4879, 6.0116 ] } },
{ "type": "Feature", "properties": { "Name": "Nawimana", "ID": "T37", "District": "Matara", "DSD": "Matara", "GND": "Nawimana North", "Latitude": 5.9683, "Longitude": 80.5588, "Address": "SAARC Cultureal Center Project, Nawimana, Matara." }, "geometry": { "type": "Point", "coordinates": [ 80.5588, 5.9683 ] } },
{ "type": "Feature", "properties": { "Name": "Mawarala", "ID": "T38", "District": "Matara", "DSD": "Pasgoda", "GND": "Gomila Mawarala", "Latitude": 6.2021, "Longitude": 80.5923, "Address": "Divisional Hospital, Gomila, Mawarala." }, "geometry": { "type": "Point", "coordinates": [ 80.5923, 6.2021 ] } },
{ "type": "Feature", "properties": { "Name": "Diyadawa", "ID": "T39", "District": "Matara", "DSD": "Pasgoda", "GND": "Pahala Bantadura", "Latitude": 6.3208, "Longitude": 80.5751, "Address": "Pahala Batandura Primary School, Batandura, Deniyaya." }, "geometry": { "type": "Point", "coordinates": [ 80.5751, 6.3208 ] } },
{ "type": "Feature", "properties": { "Name": "Horapawita", "ID": "SR023", "District": "Matara", "DSD": "Mulatiyana", "GND": "Horapawita Right C 300", "Latitude": 6.107584, "Longitude": 80.579725, "Address": "Sri Wijayasundararamaya, Horapawita, Kamburupitiya" }, "geometry": { "type": "Point", "coordinates": [ 80.579725, 6.107584 ] } },
{ "type": "Feature", "properties": { "Name": "Urumuththa", "ID": "SR024", "District": "Matara", "DSD": "Athuraliya", "GND": "Urumuththa 304", "Latitude": 6.161701, "Longitude": 80.516739, "Address": "Sri Sudharshanaramaya, Urumuththa, Akuressa" }, "geometry": { "type": "Point", "coordinates": [ 80.516739, 6.161701 ] } },
{ "type": "Feature", "properties": { "Name": "Pahala Maliduwa", "ID": "SR025", "District": "Matara", "DSD": "Akuressa", "GND": null, "Latitude": 6.119301, "Longitude": 80.419555, "Address": "Sri Wijayananda Purana Rajamaha Viharaya, Pahala Maliduwa, Akuressa" }, "geometry": { "type": "Point", "coordinates": [ 80.419555, 6.119301 ] } },
{ "type": "Feature", "properties": { "Name": "Medagama", "ID": "M35", "District": "Monaragala", "DSD": "Medagama", "GND": "Medagama", "Latitude": 7.0309, "Longitude": 81.277, "Address": "Medagama National School,\nMedagama,\nBibile." }, "geometry": { "type": "Point", "coordinates": [ 81.277, 7.0309 ] } },
{ "type": "Feature", "properties": { "Name": "Dewathura Pri.", "ID": "R59", "District": "Monaragala", "DSD": "Badalkumbura", "GND": "Dewathura", "Latitude": 6.8603, "Longitude": 81.1411, "Address": "Dewathura Primary School, Dewathura, Namunukula." }, "geometry": { "type": "Point", "coordinates": [ 81.1411, 6.8603 ] } },
{ "type": "Feature", "properties": { "Name": "Yalkumbura", "ID": "R60", "District": "Monaragala", "DSD": "Bibila", "GND": "Ethanawatta", "Latitude": 7.1135, "Longitude": 81.2148, "Address": "Tamgoda Raja Maha Viharaya, Yalkumbura, Bibile" }, "geometry": { "type": "Point", "coordinates": [ 81.2148, 7.1135 ] } },
{ "type": "Feature", "properties": { "Name": "Wellawaya", "ID": "R61", "District": "Monaragala", "DSD": "Wellawaya", "GND": "Dimbulamure", "Latitude": 6.7411, "Longitude": 81.0988, "Address": "Divisional Secretariate, Wellawaya." }, "geometry": { "type": "Point", "coordinates": [ 81.0988, 6.7411 ] } },
{ "type": "Feature", "properties": { "Name": "Norwood", "ID": "L22", "District": "Nuwara Eliya", "DSD": "Ambagamuwa", "GND": "Norwood", "Latitude": 6.8367, "Longitude": 80.6054, "Address": "Asst. Manager's Bungalow,\nNorwood Estate,\nNorwood." }, "geometry": { "type": "Point", "coordinates": [ 80.6054, 6.8367 ] } },
{ "type": "Feature", "properties": { "Name": "Hanguranketha", "ID": "L23", "District": "Nuwara Eliya", "DSD": "Hanguranketha", "GND": "Hanguranketha", "Latitude": 7.1804, "Longitude": 80.7712, "Address": "Diyathilaka Maha Vidyalaya,\nHanguranketha." }, "geometry": { "type": "Point", "coordinates": [ 80.7712, 7.1804 ] } },
{ "type": "Feature", "properties": { "Name": "St. Leonard", "ID": "L24", "District": "Nuwara Eliya", "DSD": "Walapane", "GND": "St. Leonard", "Latitude": 7.0006, "Longitude": 80.8619, "Address": "CP/ W/ St. Leonards Tamil Maha Vidyalaya, Halgran Oya." }, "geometry": { "type": "Point", "coordinates": [ 80.8619, 7.0006 ] } },
{ "type": "Feature", "properties": { "Name": "Holbrook", "ID": "L25", "District": "Nuwara Eliya", "DSD": "Nuwara Eliya", "GND": "Halbrook", "Latitude": 6.8817, "Longitude": 80.6918, "Address": "N/ Holbrook Science Collage,\nAgarapathana" }, "geometry": { "type": "Point", "coordinates": [ 80.6918, 6.8817 ] } },
{ "type": "Feature", "properties": { "Name": "Upcott", "ID": "L26", "District": "Nuwara Eliya", "DSD": "Ambagamuwa", "GND": "Aulton Waththa", "Latitude": 6.7754, "Longitude": 80.6248, "Address": "CP/ HZ/ Fairlawn Tamil Vidyalaya,\nUpcott." }, "geometry": { "type": "Point", "coordinates": [ 80.6248, 6.7754 ] } },
{ "type": "Feature", "properties": { "Name": "Great Western", "ID": "L27", "District": "Nuwara Eliya", "DSD": "Nuwara Eliya", "GND": "Great Western", "Latitude": 6.9512, "Longitude": 80.6819, "Address": "Great Western Tamil Vidyalaya,\nThalawakele." }, "geometry": { "type": "Point", "coordinates": [ 80.6819, 6.9512 ] } },
{ "type": "Feature", "properties": { "Name": "Hunugal Oya", "ID": "L28", "District": "Nuwara Eliya", "DSD": "Kotmale", "GND": "Telissagala", "Latitude": 7.0258, "Longitude": 80.5917, "Address": "CP/ KOT/ Ananda Dasanayake Maha Vidyala,\nHunugal Oya,\nKetabula." }, "geometry": { "type": "Point", "coordinates": [ 80.5917, 7.0258 ] } },
{ "type": "Feature", "properties": { "Name": "Munwatta", "ID": "L51", "District": "Nuwara Eliya", "DSD": "Walapane", "GND": "Madumana", "Latitude": 7.1148, "Longitude": 80.8312, "Address": "Munwatta" }, "geometry": { "type": "Point", "coordinates": [ 80.8312, 7.1148 ] } },
{ "type": "Feature", "properties": { "Name": "Watabe", "ID": "L52", "District": "Nuwara Eliya", "DSD": "Walapane", "GND": "Watabe", "Latitude": 7.09467, "Longitude": 80.8774, "Address": "Thibbatugoda primary school" }, "geometry": { "type": "Point", "coordinates": [ 80.8774, 7.09467 ] } },
{ "type": "Feature", "properties": { "Name": "Alakolawewa", "ID": "L53", "District": "Nuwara Eliya", "DSD": "Walapane", "GND": "Alaklolawewa", "Latitude": 7.0699, "Longitude": 80.8131, "Address": "Alakolawewa Primary School" }, "geometry": { "type": "Point", "coordinates": [ 80.8131, 7.0699 ] } },
{ "type": "Feature", "properties": { "Name": "Ragala Liddesdate", "ID": "L54", "District": "Nuwara Eliya", "DSD": "Walapane", "GND": "Brookside", "Latitude": 7.0245, "Longitude": 80.8506, "Address": "Liddesdate Tamil Vidyalaya" }, "geometry": { "type": "Point", "coordinates": [ 80.8506, 7.0245 ] } },
{ "type": "Feature", "properties": { "Name": "Kotambe", "ID": "L55", "District": "Nuwara Eliya", "DSD": "Walapane", "GND": "Palugama", "Latitude": 7.048, "Longitude": 80.9012, "Address": "Kotambe Maha Vidyalaya" }, "geometry": { "type": "Point", "coordinates": [ 80.9012, 7.048 ] } },
{ "type": "Feature", "properties": { "Name": "Sooriyagaha pathana", "ID": "L56", "District": "Nuwara Eliya", "DSD": "Walapane", "GND": "Suriyagahapathana Ihala", "Latitude": 7.0086, "Longitude": 80.8963, "Address": "Sooriyagahapathana Vidyalaya" }, "geometry": { "type": "Point", "coordinates": [ 80.8963, 7.0086 ] } },
{ "type": "Feature", "properties": { "Name": "Kurupanawala", "ID": "L57", "District": "Nuwara Eliya", "DSD": "Walapane", "GND": "Kurupanawela", "Latitude": 7.02331, "Longitude": 80.9153, "Address": "Senarath Navodya Vidyalaya, Kurupanawela" }, "geometry": { "type": "Point", "coordinates": [ 80.9153, 7.02331 ] } },
{ "type": "Feature", "properties": { "Name": "Randenigala", "ID": "L58", "District": "Nuwara Eliya", "DSD": "Walapane", "GND": "Hegasulla", "Latitude": 7.1974, "Longitude": 80.922, "Address": "Randenigala Dam" }, "geometry": { "type": "Point", "coordinates": [ 80.922, 7.1974 ] } },
{ "type": "Feature", "properties": { "Name": "Mahawewa", "ID": "L59", "District": "Nuwara Eliya", "DSD": "Walapane", "GND": "Walapane", "Latitude": 7.0942, "Longitude": 80.8631, "Address": "Mahawewa LS, Keerthi Bandara Vidyalaya" }, "geometry": { "type": "Point", "coordinates": [ 80.8631, 7.0942 ] } },
{ "type": "Feature", "properties": { "Name": "Puswelpitiya", "ID": "L60", "District": "Nuwara Eliya", "DSD": "Walapane", "GND": "Thibbatugoda South", "Latitude": 7.0808, "Longitude": 80.8835, "Address": "Puswelpitiya" }, "geometry": { "type": "Point", "coordinates": [ 80.8835, 7.0808 ] } },
{ "type": "Feature", "properties": { "Name": "Adhikarigama", "ID": "L91", "District": "Nuwara Eliya", "DSD": "Hanguranketha", "GND": "Welikada", "Latitude": 7.2189, "Longitude": 80.7869, "Address": "N/ Victoria National School,\nWelikada,\nAdhikarigama." }, "geometry": { "type": "Point", "coordinates": [ 80.7869, 7.2189 ] } },
{ "type": "Feature", "properties": { "Name": "DO_Nuwara Eliya", "ID": "L92", "District": "Nuwara Eliya", "DSD": "Nuwara Eliya", "GND": "Magastota", "Latitude": 6.9679, "Longitude": 80.7715, "Address": "NBRO District Office, Nuwaraeliya" }, "geometry": { "type": "Point", "coordinates": [ 80.7715, 6.9679 ] } },
{ "type": "Feature", "properties": { "Name": "Kalugala", "ID": "M09", "District": "Nuwara Eliya", "DSD": "Ambagamuwa", "GND": "Kalugala", "Latitude": 6.9945, "Longitude": 80.4477, "Address": "Kalugala Maha Vidyalaya, Pitawala." }, "geometry": { "type": "Point", "coordinates": [ 80.4477, 6.9945 ] } },
{ "type": "Feature", "properties": { "Name": "Meepilimana", "ID": "M10", "District": "Nuwara Eliya", "DSD": "Nuwara Eliya", "GND": "Meepilimana", "Latitude": 6.9279, "Longitude": 80.7891, "Address": "Sri Senananda Maha Vidyalaya,\nMeepilimana,\nNuwara Eliya." }, "geometry": { "type": "Point", "coordinates": [ 80.7891, 6.9279 ] } },
{ "type": "Feature", "properties": { "Name": "NIPM Morar", "ID": "M11", "District": "Nuwara Eliya", "DSD": "Ambagamuwa", "GND": "Kirkasworld", "Latitude": 6.8134, "Longitude": 80.6644, "Address": "National Institute of Plantation Management,\nRegional Training Center,\nBogawanthalawa." }, "geometry": { "type": "Point", "coordinates": [ 80.6644, 6.8134 ] } },
{ "type": "Feature", "properties": { "Name": "Ragala", "ID": "M12", "District": "Nuwara Eliya", "DSD": "Walapane", "GND": "Ragala", "Latitude": 7.0115, "Longitude": 80.8573, "Address": "T. B. M. Herath Secondary School,\nRagala." }, "geometry": { "type": "Point", "coordinates": [ 80.8573, 7.0115 ] } },
{ "type": "Feature", "properties": { "Name": "Hewaheta", "ID": "M13", "District": "Nuwara Eliya", "DSD": "Hanguranketha", "GND": "Enasalarawa", "Latitude": 7.1131, "Longitude": 80.7666, "Address": "Rahathungoda Maha Vidyalaya,\nHewaheta." }, "geometry": { "type": "Point", "coordinates": [ 80.7666, 7.1131 ] } },
{ "type": "Feature", "properties": { "Name": "Theripehe", "ID": "M14", "District": "Nuwara Eliya", "DSD": "Walapane", "GND": "Ambagahathenna", "Latitude": 7.118, "Longitude": 80.9276, "Address": "Siduhath Maha Vidyalaya,\nTheripehe,\nNildandahinna." }, "geometry": { "type": "Point", "coordinates": [ 80.9276, 7.118 ] } },
{ "type": "Feature", "properties": { "Name": "Udupussellawa", "ID": "M15", "District": "Nuwara Eliya", "DSD": "Walapane", "GND": "St Magret", "Latitude": 7.0008, "Longitude": 80.9106, "Address": "Tulloes Tamil Maha Vidyalaya,\nUdapussellawa." }, "geometry": { "type": "Point", "coordinates": [ 80.9106, 7.0008 ] } },
{ "type": "Feature", "properties": { "Name": "Mahanilu Tea Estate", "ID": "M41", "District": "Nuwara Eliya", "DSD": "Ambagamuwa", "GND": "Mahanelu", "Latitude": 6.807023, "Longitude": 80.613822, "Address": "Mahanilu Tea Estate  Mahanilu Division" }, "geometry": { "type": "Point", "coordinates": [ 80.613822, 6.807023 ] } },
{ "type": "Feature", "properties": { "Name": "Bogawanthalawa T Estat", "ID": "M42", "District": "Nuwara Eliya", "DSD": "Ambagamuwa", "GND": "Kirkuswald", "Latitude": 6.807678, "Longitude": 80.661628, "Address": "Bogawanthalawa Tea Estate  Lower Division" }, "geometry": { "type": "Point", "coordinates": [ 80.661628, 6.807678 ] } },
{ "type": "Feature", "properties": { "Name": "Brunswick Tea Estate", "ID": "M43", "District": "Nuwara Eliya", "DSD": "Ambagamuwa", "GND": "Brownswick", "Latitude": 6.818312, "Longitude": 80.583359, "Address": "Brunswick Tea Estate  Brunswick Division" }, "geometry": { "type": "Point", "coordinates": [ 80.583359, 6.818312 ] } },
{ "type": "Feature", "properties": { "Name": "Gauravila Tea Estate", "ID": "M44", "District": "Nuwara Eliya", "DSD": "Ambagamuwa", "GND": "Gawarawila", "Latitude": 6.79912, "Longitude": 80.614695, "Address": "Gouravila Tea Estate  Gouravila A Division" }, "geometry": { "type": "Point", "coordinates": [ 80.614695, 6.79912 ] } },
{ "type": "Feature", "properties": { "Name": "Lethenty Tea Estate", "ID": "M45", "District": "Nuwara Eliya", "DSD": "Ambagamuwa", "GND": "Lethant", "Latitude": 6.880976, "Longitude": 80.564433, "Address": "Lethenty Tea Estate  Lethenty Division" }, "geometry": { "type": "Point", "coordinates": [ 80.564433, 6.880976 ] } },
{ "type": "Feature", "properties": { "Name": "Minna Tamil Vidayalaya", "ID": "M46", "District": "Nuwara Eliya", "DSD": "Ambagamuwa", "GND": "Aulton Watta", "Latitude": 6.784082, "Longitude": 80.629004, "Address": "Minna Tamil Vidyalaya" }, "geometry": { "type": "Point", "coordinates": [ 80.629004, 6.784082 ] } },
{ "type": "Feature", "properties": { "Name": "Mocha Tea Estate", "ID": "M47", "District": "Nuwara Eliya", "DSD": "Ambagamuwa", "GND": "Moca", "Latitude": 6.79681, "Longitude": 80.583739, "Address": "Mocha Tea Estate" }, "geometry": { "type": "Point", "coordinates": [ 80.583739, 6.79681 ] } },
{ "type": "Feature", "properties": { "Name": "Stockhome Tea Estate", "ID": "M48", "District": "Nuwara Eliya", "DSD": "Ambagamuwa", "GND": "Mahanelu", "Latitude": 6.819243, "Longitude": 80.606013, "Address": "Stockholm Tea Estate  Stockholm Division" }, "geometry": { "type": "Point", "coordinates": [ 80.606013, 6.819243 ] } },
{ "type": "Feature", "properties": { "Name": "Cleveland Tea Estate", "ID": "M49", "District": "Nuwara Eliya", "DSD": "Ambagamuwa", "GND": "Sthrethspi", "Latitude": 6.782167, "Longitude": 80.600522, "Address": "Strathspey Tea Estate  Cleveland Division" }, "geometry": { "type": "Point", "coordinates": [ 80.600522, 6.782167 ] } },
{ "type": "Feature", "properties": { "Name": "Annadale Division", "ID": "M50", "District": "Nuwara Eliya", "DSD": "Ambagamuwa", "GND": "Sthrethspi", "Latitude": 6.782126, "Longitude": 80.600666, "Address": "Strathspey Tea Estate  Annandale Division" }, "geometry": { "type": "Point", "coordinates": [ 80.600666, 6.782126 ] } },
{ "type": "Feature", "properties": { "Name": "Bogawanthalawa", "ID": "R09", "District": "Nuwara Eliya", "DSD": "Ambagamuwa", "GND": "Kotiyagala", "Latitude": 6.794, "Longitude": 80.6819, "Address": "Kotiyagala Estate, Bogawanthalawa" }, "geometry": { "type": "Point", "coordinates": [ 80.6819, 6.794 ] } },
{ "type": "Feature", "properties": { "Name": "Daraoya", "ID": "R10", "District": "Nuwara Eliya", "DSD": "Hanguranketha", "GND": "Wetesthenna", "Latitude": 7.1257, "Longitude": 80.7364, "Address": "Sri Ginendraramaya  Temple, Handawalapitiya,  Daraoya" }, "geometry": { "type": "Point", "coordinates": [ 80.7364, 7.1257 ] } },
{ "type": "Feature", "properties": { "Name": "Kandapola", "ID": "R11", "District": "Nuwara Eliya", "DSD": "Hanguranketha", "GND": "Gonakele", "Latitude": 7.0579, "Longitude": 80.8207, "Address": "CP/Nu/HG Gonakele School, Gonakele, Kandapola" }, "geometry": { "type": "Point", "coordinates": [ 80.8207, 7.0579 ] } },
{ "type": "Feature", "properties": { "Name": "Kotagala", "ID": "R12", "District": "Nuwara Eliya", "DSD": "Nuwara Eliya", "GND": "Kuda Oya", "Latitude": 6.9176, "Longitude": 80.6001, "Address": "Government Teachers College, Kotagala, Hatton" }, "geometry": { "type": "Point", "coordinates": [ 80.6001, 6.9176 ] } },
{ "type": "Feature", "properties": { "Name": "Kotmale", "ID": "R13", "District": "Nuwara Eliya", "DSD": "Kotmale", "GND": "Maswela", "Latitude": 7.0624, "Longitude": 80.634, "Address": "CP/Kotmale Gamunu Vidyalaya, Maswela, Gampola" }, "geometry": { "type": "Point", "coordinates": [ 80.634, 7.0624 ] } },
{ "type": "Feature", "properties": { "Name": "Maldeniya", "ID": "R14", "District": "Nuwara Eliya", "DSD": "Kotmale", "GND": "Maldeniya", "Latitude": 7.0286, "Longitude": 80.6464, "Address": "Maldeniya Maha Vidyalaya, Maldeniya, Hatton" }, "geometry": { "type": "Point", "coordinates": [ 80.6464, 7.0286 ] } },
{ "type": "Feature", "properties": { "Name": "Nanu Oya", "ID": "R15", "District": "Nuwara Eliya", "DSD": "Nuwara Eliya", "GND": "Nanu Oya", "Latitude": 6.9388, "Longitude": 80.7462, "Address": "Nu/ Srimath Jams Pieris Vidayalaya, Nanuoya" }, "geometry": { "type": "Point", "coordinates": [ 80.7462, 6.9388 ] } },
{ "type": "Feature", "properties": { "Name": "Nildandahinna", "ID": "R16", "District": "Nuwara Eliya", "DSD": "Walapane", "GND": "Udamadura", "Latitude": 7.0987, "Longitude": 80.9196, "Address": "Sri Vidya Pradeepa, Secondary School, Udamadura, Nildandahinna" }, "geometry": { "type": "Point", "coordinates": [ 80.9196, 7.0987 ] } },
{ "type": "Feature", "properties": { "Name": "Ginigathhena", "ID": "T11", "District": "Nuwara Eliya", "DSD": "Ambagamuwa", "GND": "Ginigathhena", "Latitude": 6.9855, "Longitude": 80.4933, "Address": "Ginigathhena Central College. Ginigathhena" }, "geometry": { "type": "Point", "coordinates": [ 80.4933, 6.9855 ] } },
{ "type": "Feature", "properties": { "Name": "Watawala", "ID": "T12", "District": "Nuwara Eliya", "DSD": "Ambagamuwa", "GND": "Watawala", "Latitude": 6.9509, "Longitude": 80.5327, "Address": "Watwala Plantation PLC, Carolina Estate, Watawala" }, "geometry": { "type": "Point", "coordinates": [ 80.5327, 6.9509 ] } },
{ "type": "Feature", "properties": { "Name": "Hatton", "ID": "T13", "District": "Nuwara Eliya", "DSD": "Ambagamuwa", "GND": "Part of Hatton North", "Latitude": 6.8934, "Longitude": 80.5996, "Address": "Sripada Central College, Hatton" }, "geometry": { "type": "Point", "coordinates": [ 80.5996, 6.8934 ] } },
{ "type": "Feature", "properties": { "Name": "Maskeliya", "ID": "T14", "District": "Nuwara Eliya", "DSD": "Ambagamuwa", "GND": "Brownlow", "Latitude": 6.8297, "Longitude": 80.5744, "Address": "Saman Eliya Maha Vidyalaya, Maskeliya" }, "geometry": { "type": "Point", "coordinates": [ 80.5744, 6.8297 ] } },
{ "type": "Feature", "properties": { "Name": "Norton", "ID": "T15", "District": "Nuwara Eliya", "DSD": "Ambagamuwa", "GND": "Kiriwaneliya", "Latitude": 6.9182, "Longitude": 80.5064, "Address": "Kiriwan Eliya Vidyalaya Vidulipura , Norton" }, "geometry": { "type": "Point", "coordinates": [ 80.5064, 6.9182 ] } },
{ "type": "Feature", "properties": { "Name": "Thalawakele", "ID": "T17", "District": "Nuwara Eliya", "DSD": "Nuwara Eliya", "GND": "Part of Holyrood", "Latitude": 6.9357, "Longitude": 80.6634, "Address": "Sumana Secondary school, Thalawakele" }, "geometry": { "type": "Point", "coordinates": [ 80.6634, 6.9357 ] } },
{ "type": "Feature", "properties": { "Name": "Kothmale", "ID": "T18", "District": "Nuwara Eliya", "DSD": "Kothmale", "GND": "Sangilipalama", "Latitude": 7.0639, "Longitude": 80.6836, "Address": "Gamini Disanayake National School,\n NewTown Kothmale" }, "geometry": { "type": "Point", "coordinates": [ 80.6836, 7.0639 ] } },
{ "type": "Feature", "properties": { "Name": "Labookele", "ID": "T19", "District": "Nuwara Eliya", "DSD": "Nuwara Eliya", "GND": "Toppass", "Latitude": 7.0055, "Longitude": 80.7332, "Address": "Kikiliyamana Maha Vidyalaya,Labookele" }, "geometry": { "type": "Point", "coordinates": [ 80.7332, 7.0055 ] } },
{ "type": "Feature", "properties": { "Name": "Hawa Eliya", "ID": "T20", "District": "Nuwara Eliya", "DSD": "Nuwara Eliya", "GND": "Part of HawaEliya East", "Latitude": 6.9718, "Longitude": 80.7851, "Address": "Siri Wajiragnana Maha Vidyalaya,Hawa Eliya,N'Eliya" }, "geometry": { "type": "Point", "coordinates": [ 80.7851, 6.9718 ] } },
{ "type": "Feature", "properties": { "Name": "Rikillagaskada", "ID": "T21", "District": "Nuwara Eliya", "DSD": "Hanguranketha", "GND": "Labuhena", "Latitude": 7.1405, "Longitude": 80.7745, "Address": "Poramadulla Central. College, Rikillagaskada" }, "geometry": { "type": "Point", "coordinates": [ 80.7745, 7.1405 ] } },
{ "type": "Feature", "properties": { "Name": "Dayagama", "ID": "T53", "District": "Nuwara Eliya", "DSD": "Nuwaraeliya", "GND": "Dayagama West", "Latitude": 6.8553, "Longitude": 80.7488, "Address": "Dayagama Sinhala Vidyalaya, Dayagama." }, "geometry": { "type": "Point", "coordinates": [ 80.7488, 6.8553 ] } },
{ "type": "Feature", "properties": { "Name": "Pattipola", "ID": "T54", "District": "Nuwara Eliya", "DSD": "Nuwara Eliya", "GND": "Pattipola", "Latitude": 6.8619, "Longitude": 80.8289, "Address": "Reaserch Medical Plants Garden, Pattipola." }, "geometry": { "type": "Point", "coordinates": [ 80.8289, 6.8619 ] } },
{ "type": "Feature", "properties": { "Name": "Harasbedda", "ID": "T55", "District": "Nuwara Eliya", "DSD": "Walapane", "GND": "Harasbedda North", "Latitude": 7.0589, "Longitude": 80.8796, "Address": "National Youth Corps Training Center, Walapane." }, "geometry": { "type": "Point", "coordinates": [ 80.8796, 7.0589 ] } },
{ "type": "Feature", "properties": { "Name": "Poodalu Oya", "ID": "T56", "District": "Nuwara Eliya", "DSD": "Kotmale", "GND": "Poodaluoya West", "Latitude": 7.0131, "Longitude": 80.6678, "Address": "Agrarian Service Center, Poodaluoya." }, "geometry": { "type": "Point", "coordinates": [ 80.6678, 7.0131 ] } },
{ "type": "Feature", "properties": { "Name": "Lakshapana", "ID": "T57", "District": "Nuwara Eliya", "DSD": "Ambagamuwa", "GND": "Lakshapana", "Latitude": 6.9299, "Longitude": 80.4901, "Address": "Lakshapana Central Collage, Lakshapana." }, "geometry": { "type": "Point", "coordinates": [ 80.4901, 6.9299 ] } },
{ "type": "Feature", "properties": { "Name": "Mandaran Nuwara", "ID": "T58", "District": "Nuwara Eliya", "DSD": "Hanguranketha", "GND": "521A Mandarannuwara", "Latitude": 7.0347, "Longitude": 80.7831, "Address": "Udawela Maha Vidyalaya, Mandaran Nuwara." }, "geometry": { "type": "Point", "coordinates": [ 80.7831, 7.0347 ] } },
{ "type": "Feature", "properties": { "Name": "Munwaththa", "ID": "T59", "District": "Nuwara Eliya", "DSD": "Walapane", "GND": "Munwaththa", "Latitude": 7.1225, "Longitude": 80.8178, "Address": "Dharmapala Primary School, Munwaththa, Walapane." }, "geometry": { "type": "Point", "coordinates": [ 80.8178, 7.1225 ] } },
{ "type": "Feature", "properties": { "Name": "Madulla", "ID": "T60", "District": "Nuwara Eliya", "DSD": "Walapane", "GND": "527A Morahela", "Latitude": 7.0535, "Longitude": 80.9278, "Address": "Madulla Secondary School, Madulla, Udapussellawa." }, "geometry": { "type": "Point", "coordinates": [ 80.9278, 7.0535 ] } },
{ "type": "Feature", "properties": { "Name": "Udakanda", "ID": "SR004", "District": "Nuwara Eliya", "DSD": "Hanguranketha", "GND": null, "Latitude": 7.161944, "Longitude": 80.811714, "Address": "Sri Buddha Jayanthi Aramaya, Udagalauda, Illagolla, Hanguranketha" }, "geometry": { "type": "Point", "coordinates": [ 80.811714, 7.161944 ] } },
{ "type": "Feature", "properties": { "Name": "Kukule", "ID": "L06", "District": "Ratnapura", "DSD": "Ayagama", "GND": "Nikagoda", "Latitude": 6.58, "Longitude": 80.3261, "Address": "Kukuleganga Power Station,\nKaluwalathenna,\nKelinkanda,\nAgalawaththa." }, "geometry": { "type": "Point", "coordinates": [ 80.3261, 6.58 ] } },
{ "type": "Feature", "properties": { "Name": "Pettigala", "ID": "L29", "District": "Ratnapura", "DSD": "Balangoda", "GND": "Pettigala", "Latitude": 6.6485, "Longitude": 80.6717, "Address": "Pettigala Estate,\nBalangoda Plantation PLC,\nPettigala, Balangoda." }, "geometry": { "type": "Point", "coordinates": [ 80.6717, 6.6485 ] } },
{ "type": "Feature", "properties": { "Name": "Paalankotte", "ID": "L30", "District": "Ratnapura", "DSD": "Godakawela", "GND": "Paalankotte", "Latitude": 6.4635, "Longitude": 80.6579, "Address": "Spring Wood Estate,\nHapugasthenna Plantation PLC,\nRakwana." }, "geometry": { "type": "Point", "coordinates": [ 80.6579, 6.4635 ] } },
{ "type": "Feature", "properties": { "Name": "Openayake", "ID": "L31", "District": "Ratnapura", "DSD": "Openayake", "GND": "Metihakwela", "Latitude": 6.6333, "Longitude": 80.6055, "Address": "Hunuwella Estate,\nKahawatte Plantation PLC,\nOpenayaka." }, "geometry": { "type": "Point", "coordinates": [ 80.6055, 6.6333 ] } },
{ "type": "Feature", "properties": { "Name": "Galaboda", "ID": "L32", "District": "Ratnapura", "DSD": "Ratnapura", "GND": "Galaboda", "Latitude": 6.7072, "Longitude": 80.469, "Address": "Galaboda Estate,\nHapugasthenna Plantation PLC,\nGallella." }, "geometry": { "type": "Point", "coordinates": [ 80.469, 6.7072 ] } },
{ "type": "Feature", "properties": { "Name": "Palabaddala", "ID": "L33", "District": "Ratnapura", "DSD": "Ratnapura", "GND": "Siripagama", "Latitude": 6.7871, "Longitude": 80.4391, "Address": "Asoka Estate,\nSri Palabaddala,\nRatnapura." }, "geometry": { "type": "Point", "coordinates": [ 80.4391, 6.7871 ] } },
{ "type": "Feature", "properties": { "Name": "Kuruwita", "ID": "L34", "District": "Ratnapura", "DSD": "Kuruwita", "GND": "Delgamuwa", "Latitude": 6.781, "Longitude": 80.364, "Address": "Divisional Secretarite,\nKuruwita." }, "geometry": { "type": "Point", "coordinates": [ 80.364, 6.781 ] } },
{ "type": "Feature", "properties": { "Name": "Gettukade", "ID": "L35", "District": "Ratnapura", "DSD": "Eheliyagoda", "GND": "Karadana North", "Latitude": 6.8246, "Longitude": 80.2108, "Address": "Sri Sumanaramaya,\nKaradana North,\nKalatuwawa." }, "geometry": { "type": "Point", "coordinates": [ 80.2108, 6.8246 ] } },
{ "type": "Feature", "properties": { "Name": "Welangapola", "ID": "L36", "District": "Ratnapura", "DSD": "Weligepola", "GND": "Anmaduwa", "Latitude": 6.5378, "Longitude": 80.6534, "Address": "R/ B/ Welangapola Vidyalaya,\nRanwala,\nGodakawela." }, "geometry": { "type": "Point", "coordinates": [ 80.6534, 6.5378 ] } },
{ "type": "Feature", "properties": { "Name": "Yahalahena", "ID": "L61", "District": "Ratnapura", "DSD": "Ratnapura", "GND": "Delgoda West", "Latitude": 6.48622, "Longitude": 80.4061, "Address": "Yagalahena" }, "geometry": { "type": "Point", "coordinates": [ 80.4061, 6.48622 ] } },
{ "type": "Feature", "properties": { "Name": "Handunkanda", "ID": "L62", "District": "Ratnapura", "DSD": "Ratnapura", "GND": "Paragala", "Latitude": 6.6095, "Longitude": 80.3347, "Address": "Handunkanda Primary School" }, "geometry": { "type": "Point", "coordinates": [ 80.3347, 6.6095 ] } },
{ "type": "Feature", "properties": { "Name": "Gavaragiriya", "ID": "L63", "District": "Ratnapura", "DSD": "Ratnapura", "GND": "Gawaragiriya", "Latitude": 6.65296, "Longitude": 80.2605, "Address": "Gavaragiriya Mahavidyalaya" }, "geometry": { "type": "Point", "coordinates": [ 80.2605, 6.65296 ] } },
{ "type": "Feature", "properties": { "Name": "Norogolla", "ID": "L64", "District": "Ratnapura", "DSD": "Ratnapura", "GND": "Noragolla", "Latitude": 6.62066, "Longitude": 80.4425, "Address": "Sri Norogolla Temple" }, "geometry": { "type": "Point", "coordinates": [ 80.4425, 6.62066 ] } },
{ "type": "Feature", "properties": { "Name": "Kiribathgala", "ID": "L65", "District": "Ratnapura", "DSD": "Ratnapura", "GND": "Wanniyawatta", "Latitude": 6.59733, "Longitude": 80.5152, "Address": "Community Hall GN Office" }, "geometry": { "type": "Point", "coordinates": [ 80.5152, 6.59733 ] } },
{ "type": "Feature", "properties": { "Name": "Pebotuwa", "ID": "L66", "District": "Ratnapura", "DSD": "Ratnapura", "GND": "Pebotuwa", "Latitude": 6.53968, "Longitude": 80.4527, "Address": "Pebotuwa Visuddharamaya" }, "geometry": { "type": "Point", "coordinates": [ 80.4527, 6.53968 ] } },
{ "type": "Feature", "properties": { "Name": "DO_Ratnapura", "ID": "L93", "District": "Ratnapura", "DSD": "Ratnapura", "GND": "Mudduwa - East", "Latitude": 6.7136, "Longitude": 80.3808, "Address": "NBRO District Office, Ratnapura" }, "geometry": { "type": "Point", "coordinates": [ 80.3808, 6.7136 ] } },
{ "type": "Feature", "properties": { "Name": "Ellawala", "ID": "L94", "District": "Ratnapura", "DSD": "Kiriella", "GND": "Ellawala Pahalagama", "Latitude": 6.7814, "Longitude": 80.2747, "Address": "Ellawala Pahalagama Vidyalaya, Pahalagama,\nEllawala." }, "geometry": { "type": "Point", "coordinates": [ 80.2747, 6.7814 ] } },
{ "type": "Feature", "properties": { "Name": "Maduwanwela", "ID": "L95", "District": "Ratnapura", "DSD": "Embilipitiya", "GND": "Maduwanwela", "Latitude": 6.4027, "Longitude": 80.7966, "Address": "Maduwanwela Janapada Vidyalaya,\nKolambage Ara." }, "geometry": { "type": "Point", "coordinates": [ 80.7966, 6.4027 ] } },
{ "type": "Feature", "properties": { "Name": "Ranwala", "ID": "L96", "District": "Ratnapura", "DSD": "Weligepola", "GND": "Ranwala", "Latitude": 6.5483, "Longitude": 80.672, "Address": "Ranwala Maha Vidyalaya, Ranawala, Godakawela." }, "geometry": { "type": "Point", "coordinates": [ 80.672, 6.5483 ] } },
{ "type": "Feature", "properties": { "Name": "Bungiriya", "ID": "M36", "District": "Ratnapura", "DSD": "Kahawatta", "GND": "Bungiriya", "Latitude": 6.553, "Longitude": 80.5679, "Address": "Nalandaramaya\nSagara Palansuriya Mawatha,\nBungiriya,\nKahawatta" }, "geometry": { "type": "Point", "coordinates": [ 80.5679, 6.553 ] } },
{ "type": "Feature", "properties": { "Name": "Doloswala Estate", "ID": "M37", "District": "Ratnapura", "DSD": "Nivithigala", "GND": "Doloswala Kanda", "Latitude": 6.5616, "Longitude": 80.4729, "Address": "Doloswala Estate,\nRubber Factory,\nNivithigala" }, "geometry": { "type": "Point", "coordinates": [ 80.4729, 6.5616 ] } },
{ "type": "Feature", "properties": { "Name": "Kalawana MMV", "ID": "M38", "District": "Ratnapura", "DSD": "Kalawana", "GND": "Kalawana West", "Latitude": 6.5354, "Longitude": 80.4013, "Address": "Kalawana National School\nKalawana" }, "geometry": { "type": "Point", "coordinates": [ 80.4013, 6.5354 ] } },
{ "type": "Feature", "properties": { "Name": "Palawela", "ID": "M39", "District": "Ratnapura", "DSD": "Elapatha", "GND": "Palawela", "Latitude": 6.6456, "Longitude": 80.3558, "Address": "CHOI VILLAGE, Palawela, Uda Niriella" }, "geometry": { "type": "Point", "coordinates": [ 80.3558, 6.6456 ] } },
{ "type": "Feature", "properties": { "Name": "Samanalagama", "ID": "M40", "District": "Ratnapura", "DSD": "Pelmadulla", "GND": "Dewalegama", "Latitude": 6.6302, "Longitude": 80.509, "Address": "Sri Bodhirajaramaya,\nSamanalagama,\nPathakada,\nPelmadulla" }, "geometry": { "type": "Point", "coordinates": [ 80.509, 6.6302 ] } },
{ "type": "Feature", "properties": { "Name": "Pelmadulla", "ID": "R36", "District": "Ratnapura", "DSD": "Pelmadulla", "GND": "Denawaka Pathakada", "Latitude": 6.633, "Longitude": 80.5037, "Address": "  , , " }, "geometry": { "type": "Point", "coordinates": [ 80.5037, 6.633 ] } },
{ "type": "Feature", "properties": { "Name": "Kahawatta", "ID": "R37", "District": "Ratnapura", "DSD": "Godakawela", "GND": "Hapurudeniya", "Latitude": 6.557, "Longitude": 80.5822, "Address": "Ruwanpura National College of Education, Wellandura, Kahawatte" }, "geometry": { "type": "Point", "coordinates": [ 80.5822, 6.557 ] } },
{ "type": "Feature", "properties": { "Name": "Nivithigala", "ID": "R38", "District": "Ratnapura", "DSD": "Nivithigala", "GND": "Nivithigala", "Latitude": 6.5926, "Longitude": 80.4595, "Address": "Police Station, Nivithigala" }, "geometry": { "type": "Point", "coordinates": [ 80.4595, 6.5926 ] } },
{ "type": "Feature", "properties": { "Name": "Elapatha", "ID": "R39", "District": "Ratnapura", "DSD": "Elapatha", "GND": "Gangulvitiya", "Latitude": 6.655, "Longitude": 80.3673, "Address": "Divisional Secretariat, Elapatha" }, "geometry": { "type": "Point", "coordinates": [ 80.3673, 6.655 ] } },
{ "type": "Feature", "properties": { "Name": "Kalawana", "ID": "R40", "District": "Ratnapura", "DSD": "Kalawana", "GND": "Kukulegama North", "Latitude": 6.5352, "Longitude": 80.3635, "Address": "Vibhavi Vocational Training Institute, Pahala Kukulegama, Kalawana" }, "geometry": { "type": "Point", "coordinates": [ 80.3635, 6.5352 ] } },
{ "type": "Feature", "properties": { "Name": "Eheliyagoda", "ID": "R62", "District": "Ratnapura", "DSD": "Eheliyagoda", "GND": "Kendangamuwa", "Latitude": 6.8526, "Longitude": 80.2633, "Address": "Eheliyagoda National Collage, Eheliyagoda." }, "geometry": { "type": "Point", "coordinates": [ 80.2633, 6.8526 ] } },
{ "type": "Feature", "properties": { "Name": "Endane", "ID": "R63", "District": "Ratnapura", "DSD": "Kahawaththa", "GND": "Endana", "Latitude": 6.5193, "Longitude": 80.5306, "Address": "Endana () Estate, Kahawatte." }, "geometry": { "type": "Point", "coordinates": [ 80.5306, 6.5193 ] } },
{ "type": "Feature", "properties": { "Name": "Erathna MV", "ID": "R64", "District": "Ratnapura", "DSD": "Kuruwita", "GND": "Erathna", "Latitude": 6.8342, "Longitude": 80.4089, "Address": "Erathna Maha Vidyalaya, Erathna." }, "geometry": { "type": "Point", "coordinates": [ 80.4089, 6.8342 ] } },
{ "type": "Feature", "properties": { "Name": "Kaltota", "ID": "R65", "District": "Ratnapura", "DSD": "Balangoda", "GND": "Thanjanthenna", "Latitude": 6.6432, "Longitude": 80.8658, "Address": "Quality Chemicals (Pvt) Ltd., 16th Post, Thanjanthenna ()Kaltota, Balangoda" }, "geometry": { "type": "Point", "coordinates": [ 80.8658, 6.6432 ] } },
{ "type": "Feature", "properties": { "Name": "Namunuthenna", "ID": "R66", "District": "Ratnapura", "DSD": "Ayagama", "GND": "Dethabadakanda", "Latitude": 6.6999, "Longitude": 80.26907, "Address": "Namunuthenna Vidyalaya, Kiri-Ella." }, "geometry": { "type": "Point", "coordinates": [ 80.26907, 6.6999 ] } },
{ "type": "Feature", "properties": { "Name": "Omalpe", "ID": "R67", "District": "Ratnapura", "DSD": "Kolonna", "GND": "Omalpe", "Latitude": 6.3297, "Longitude": 80.7015, "Address": "  , , ." }, "geometry": { "type": "Point", "coordinates": [ 80.7015, 6.3297 ] } },
{ "type": "Feature", "properties": { "Name": "Pinnawala", "ID": "R68", "District": "Ratnapura", "DSD": "Imbulpe", "GND": "Maddegama", "Latitude": 6.7207, "Longitude": 80.6839, "Address": "  , , , ." }, "geometry": { "type": "Point", "coordinates": [ 80.6839, 6.7207 ] } },
{ "type": "Feature", "properties": { "Name": "Rambuka MV", "ID": "R69", "District": "Ratnapura", "DSD": "Kalawana", "GND": "Kathlana", "Latitude": 6.4492, "Longitude": 80.5121, "Address": "Rambuka Maha Vidyalaya, Pothupitiya, Kalawana." }, "geometry": { "type": "Point", "coordinates": [ 80.5121, 6.4492 ] } },
{ "type": "Feature", "properties": { "Name": "Ratnapura", "ID": "R70", "District": "Ratnapura", "DSD": "Ratnapura", "GND": "Weralupe", "Latitude": 6.6918, "Longitude": 80.3896, "Address": "   ,  , ." }, "geometry": { "type": "Point", "coordinates": [ 80.3896, 6.6918 ] } },
{ "type": "Feature", "properties": { "Name": "Suriyakanda", "ID": "R71", "District": "Ratnapura", "DSD": "Kolonna", "GND": "Poddana", "Latitude": 6.4372, "Longitude": 80.6351, "Address": "Aigbirth State, Suriyakanda, Buluthota." }, "geometry": { "type": "Point", "coordinates": [ 80.6351, 6.4372 ] } },
{ "type": "Feature", "properties": { "Name": "Ulinduwawa", "ID": "R72", "District": "Ratnapura", "DSD": "Kolonna", "GND": "Boraluwageaina", "Latitude": 6.3683, "Longitude": 80.6584, "Address": "Hayes Estate, Ullinduwawa ()" }, "geometry": { "type": "Point", "coordinates": [ 80.6584, 6.3683 ] } },
{ "type": "Feature", "properties": { "Name": "Waleboda", "ID": "R73", "District": "Ratnapura", "DSD": "Imbulpe", "GND": "Kattadikanda", "Latitude": 6.7288, "Longitude": 80.6383, "Address": "Waleboda Estate, Balangoda." }, "geometry": { "type": "Point", "coordinates": [ 80.6383, 6.7288 ] } },
{ "type": "Feature", "properties": { "Name": "Weligepola", "ID": "R74", "District": "Ratnapura", "DSD": "Weligepola", "GND": "Kongasthanna", "Latitude": 6.595, "Longitude": 80.7183, "Address": "Kongasthenna Vidyalaya, Weligepola, Balangoda." }, "geometry": { "type": "Point", "coordinates": [ 80.7183, 6.595 ] } },
{ "type": "Feature", "properties": { "Name": "Wewelwaththa", "ID": "R75", "District": "Ratnapura", "DSD": "Ratnapura", "GND": "Bambarabotuwa", "Latitude": 6.7045, "Longitude": 80.5555, "Address": "Alupola Estate, Wewelwaththa." }, "geometry": { "type": "Point", "coordinates": [ 80.5555, 6.7045 ] } },
{ "type": "Feature", "properties": { "Name": "Imbulpe", "ID": "T01", "District": "Ratnapura", "DSD": "Imbulpe", "GND": "Medagedaragoda", "Latitude": 6.6913, "Longitude": 80.7446, "Address": "Ra/Sariputhra Maha Vidyalaya, Imbulpe , Balangoda" }, "geometry": { "type": "Point", "coordinates": [ 80.7446, 6.6913 ] } },
{ "type": "Feature", "properties": { "Name": "Belihuloya", "ID": "T02", "District": "Ratnapura", "DSD": "Imbulpe", "GND": "Muttettuwegama", "Latitude": 6.71104, "Longitude": 80.79077, "Address": "Ba/Sabaragamuwa University" }, "geometry": { "type": "Point", "coordinates": [ 80.79077, 6.71104 ] } },
{ "type": "Feature", "properties": { "Name": "Hapugoda", "ID": "SR014", "District": "Ratnapura", "DSD": "Kalawana", "GND": "Hapugoda", "Latitude": 6.419334, "Longitude": 80.483076, "Address": "P.W. Sumanaweera, Palawaththa, Panapola, Kalawana" }, "geometry": { "type": "Point", "coordinates": [ 80.483076, 6.419334 ] } },
{ "type": "Feature", "properties": { "Name": "Galandahena", "ID": "SR015", "District": "Ratnapura", "DSD": "Godakawela", "GND": "Rakwana West", "Latitude": 6.464977, "Longitude": 80.595665, "Address": "K.M.J.M.T.B. Wijekoon, Galandahenawaththa, Rakkwana" }, "geometry": { "type": "Point", "coordinates": [ 80.595665, 6.464977 ] } },
{ "type": "Feature", "properties": { "Name": "Hatangala", "ID": "SR016", "District": "Ratnapura", "DSD": "Weligepola", "GND": null, "Latitude": 6.550844, "Longitude": 80.731982, "Address": "Walagamba Rajamaha Viharaya, Kottibulwala, Hatangala, Balangoda" }, "geometry": { "type": "Point", "coordinates": [ 80.731982, 6.550844 ] } },
{ "type": "Feature", "properties": { "Name": "Dehenakanda", "ID": "SR017", "District": "Ratnapura", "DSD": "Ratnapura", "GND": null, "Latitude": 6.730553, "Longitude": 80.537129, "Address": "Hapugasthenna Estate, Hapugasthenna, Ratnapura" }, "geometry": { "type": "Point", "coordinates": [ 80.537129, 6.730553 ] } },
{ "type": "Feature", "properties": { "Name": "Goluwawila", "ID": "SR018", "District": "Ratnapura", "DSD": "Ratnapura", "GND": null, "Latitude": 6.712828, "Longitude": 80.396186, "Address": "Sri Jayasekararamaya, Goluwawila, Ratnapura" }, "geometry": { "type": "Point", "coordinates": [ 80.396186, 6.712828 ] } },
{ "type": "Feature", "properties": { "Name": "Kiriporuwa", "ID": "SR019", "District": "Ratnapura", "DSD": "Eheliyagoda", "GND": "142, Kiriporuwa", "Latitude": 6.8161, "Longitude": 80.2346, "Address": "Kiriporura Sri Nagarukkharamaya, Kiriporuwa, Arapola, Eheliyagoda" }, "geometry": { "type": "Point", "coordinates": [ 80.2346, 6.8161 ] } }
]
}
